{
  "generatedAt": "2025-12-04T05:35:41Z",
  "count": 5000,
  "stops": [
    {
      "stopId": "5682",
      "name": "Everett Ave @ Arlington St",
      "municipality": "Chelsea",
      "latitude": 42.393652,
      "longitude": -71.039037,
      "parentStationId": null,
      "vehicleType": 3,
      "platformCode": null
    },
    {
      "stopId": "50620",
      "name": "Washington St @ Alcott Ln",
      "municipality": "Westwood",
      "latitude": 42.223919,
      "longitude": -71.187061,
      "parentStationId": null,
      "vehicleType": 3,
      "platformCode": null
    },
    {
      "stopId": "4042",
      "name": "North St @ Broad St",
      "municipality": "Randolph",
      "latitude": 42.188177,
      "longitude": -71.029915,
      "parentStationId": null,
      "vehicleType": 3,
      "platformCode": null
    },
    {
      "stopId": "109822",
      "name": "Veterans Rd @ Cutler St",
      "municipality": "Winthrop",
      "latitude": 42.374284,
      "longitude": -70.972804,
      "parentStationId": null,
      "vehicleType": 3,
      "platformCode": null
    },
    {
      "stopId": "70207",
      "name": "Science Park/West End",
      "municipality": "Boston",
      "latitude": 42.366664,
      "longitude": -71.067666,
      "parentStationId": "place-spmnl",
      "vehicleType": 0,
      "platformCode": null
    },
    {
      "stopId": "7954",
      "name": "Washington St @ Candia St",
      "municipality": "Arlington",
      "latitude": 42.425213,
      "longitude": -71.168978,
      "parentStationId": null,
      "vehicleType": 3,
      "platformCode": null
    },
    {
      "stopId": "2231",
      "name": "Main St @ Kendall Station - Red Line",
      "municipality": "Cambridge",
      "latitude": 42.362498,
      "longitude": -71.085841,
      "parentStationId": null,
      "vehicleType": 3,
      "platformCode": null
    },
    {
      "stopId": "7578",
      "name": "Beaver St @ Waverley Oaks Rd",
      "municipality": "Waltham",
      "latitude": 42.383979,
      "longitude": -71.210523,
      "parentStationId": null,
      "vehicleType": 3,
      "platformCode": null
    },
    {
      "stopId": "1521",
      "name": "Brookline Ave @ Longwood Ave",
      "municipality": "Boston",
      "latitude": 42.33851,
      "longitude": -71.107918,
      "parentStationId": null,
      "vehicleType": 3,
      "platformCode": null
    },
    {
      "stopId": "2329",
      "name": "East Service Rd @ Radcliffe Rd",
      "municipality": "Belmont",
      "latitude": 42.409,
      "longitude": -71.174303,
      "parentStationId": null,
      "vehicleType": 3,
      "platformCode": null
    },
    {
      "stopId": "9187",
      "name": "Main St @ Forest St",
      "municipality": "Wakefield",
      "latitude": 42.484184,
      "longitude": -71.06779,
      "parentStationId": null,
      "vehicleType": 3,
      "platformCode": null
    },
    {
      "stopId": "11613",
      "name": "W Boundary Rd @ Washington St",
      "municipality": "Boston",
      "latitude": 42.267432,
      "longitude": -71.149989,
      "parentStationId": null,
      "vehicleType": 3,
      "platformCode": null
    },
    {
      "stopId": "17922",
      "name": "Massachusetts Ave @ Park Ave",
      "municipality": "Arlington",
      "latitude": 42.424244,
      "longitude": -71.183186,
      "parentStationId": null,
      "vehicleType": 3,
      "platformCode": null
    },
    {
      "stopId": "8160",
      "name": "Walnut St @ Homer St",
      "municipality": "Newton",
      "latitude": 42.335913,
      "longitude": -71.207072,
      "parentStationId": null,
      "vehicleType": 3,
      "platformCode": null
    },
    {
      "stopId": "6218",
      "name": "Park Ave @ Cedar Ave",
      "municipality": "Arlington",
      "latitude": 42.412495,
      "longitude": -71.181987,
      "parentStationId": null,
      "vehicleType": 3,
      "platformCode": null
    },
    {
      "stopId": "8492",
      "name": "Dedham St @ Meadowbrook Rd",
      "municipality": "Newton",
      "latitude": 42.305245,
      "longitude": -71.19376,
      "parentStationId": null,
      "vehicleType": 3,
      "platformCode": null
    },
    {
      "stopId": "7249",
      "name": "Western Ave @ Bayview Ave",
      "municipality": "Lynn",
      "latitude": 42.473666,
      "longitude": -70.952218,
      "parentStationId": null,
      "vehicleType": 3,
      "platformCode": null
    },
    {
      "stopId": "8575",
      "name": "Broadway @ Trueman Dr",
      "municipality": "Malden",
      "latitude": 42.441169,
      "longitude": -71.031296,
      "parentStationId": null,
      "vehicleType": 3,
      "platformCode": null
    },
    {
      "stopId": "5656",
      "name": "Central Ave @ Lynn St",
      "municipality": "Chelsea",
      "latitude": 42.389371,
      "longitude": -71.031916,
      "parentStationId": null,
      "vehicleType": 3,
      "platformCode": null
    },
    {
      "stopId": "70159",
      "name": "Boylston",
      "municipality": "Boston",
      "latitude": 42.353214,
      "longitude": -71.064545,
      "parentStationId": "place-boyls",
      "vehicleType": 0,
      "platformCode": null
    },
    {
      "stopId": "2515",
      "name": "Windsor St @ Lincoln St",
      "municipality": "Cambridge",
      "latitude": 42.371052,
      "longitude": -71.09398,
      "parentStationId": null,
      "vehicleType": 3,
      "platformCode": null
    },
    {
      "stopId": "5251",
      "name": "1467 Centre St opp Hewlett St",
      "municipality": "Boston",
      "latitude": 42.292235,
      "longitude": -71.138693,
      "parentStationId": null,
      "vehicleType": 3,
      "platformCode": null
    },
    {
      "stopId": "GB-0296-B2",
      "name": "West Gloucester - Parking Lot",
      "municipality": "Gloucester",
      "latitude": 42.611957,
      "longitude": -70.70535,
      "parentStationId": "place-GB-0296",
      "vehicleType": 3,
      "platformCode": null
    },
    {
      "stopId": "58",
      "name": "Massachusetts Ave @ Harrison Ave",
      "municipality": "Boston",
      "latitude": 42.334948,
      "longitude": -71.074931,
      "parentStationId": null,
      "vehicleType": 3,
      "platformCode": null
    },
    {
      "stopId": "1936",
      "name": "South St @ Spalding St",
      "municipality": "Boston",
      "latitude": 42.303741,
      "longitude": -71.114635,
      "parentStationId": null,
      "vehicleType": 3,
      "platformCode": null
    },
    {
      "stopId": "4710",
      "name": "N Shore Rd @ Tobin Ave",
      "municipality": "Revere",
      "latitude": 42.437627,
      "longitude": -70.970489,
      "parentStationId": null,
      "vehicleType": 3,
      "platformCode": null
    },
    {
      "stopId": "3831",
      "name": "South St @ Southern Artery",
      "municipality": "Quincy",
      "latitude": 42.24345,
      "longitude": -70.98392,
      "parentStationId": null,
      "vehicleType": 3,
      "platformCode": null
    },
    {
      "stopId": "1816",
      "name": "Brookline St @ Green St",
      "municipality": "Cambridge",
      "latitude": 42.363303,
      "longitude": -71.101948,
      "parentStationId": null,
      "vehicleType": 3,
      "platformCode": null
    },
    {
      "stopId": "18924",
      "name": "404 Wyman St",
      "municipality": "Waltham",
      "latitude": 42.406948,
      "longitude": -71.25671,
      "parentStationId": null,
      "vehicleType": 3,
      "platformCode": null
    },
    {
      "stopId": "PB-0281-B0",
      "name": "Halifax - Parking Lot",
      "municipality": "Halifax",
      "latitude": 42.01456,
      "longitude": -70.82424,
      "parentStationId": "place-PB-0281",
      "vehicleType": 3,
      "platformCode": null
    },
    {
      "stopId": "12439",
      "name": "Prospect St @ Cambridge St",
      "municipality": "Cambridge",
      "latitude": 42.37378,
      "longitude": -71.097963,
      "parentStationId": null,
      "vehicleType": 3,
      "platformCode": null
    },
    {
      "stopId": "15984",
      "name": "Main St @ Summer St",
      "municipality": "Stoneham",
      "latitude": 42.47412,
      "longitude": -71.100667,
      "parentStationId": null,
      "vehicleType": 3,
      "platformCode": null
    },
    {
      "stopId": "7854",
      "name": "California St @ Bridge St",
      "municipality": "Newton",
      "latitude": 42.365127,
      "longitude": -71.204205,
      "parentStationId": null,
      "vehicleType": 3,
      "platformCode": null
    },
    {
      "stopId": "9114",
      "name": "757 Main St",
      "municipality": "Winchester",
      "latitude": 42.459212,
      "longitude": -71.139961,
      "parentStationId": null,
      "vehicleType": 3,
      "platformCode": null
    },
    {
      "stopId": "325",
      "name": "Park St Busway @ Dorchester Ave",
      "municipality": "Boston",
      "latitude": 42.298197,
      "longitude": -71.060956,
      "parentStationId": null,
      "vehicleType": 3,
      "platformCode": null
    },
    {
      "stopId": "3874",
      "name": "Hancock St @ Washington St",
      "municipality": "Braintree",
      "latitude": 42.195353,
      "longitude": -71.005366,
      "parentStationId": null,
      "vehicleType": 3,
      "platformCode": null
    },
    {
      "stopId": "7582",
      "name": "Main St @ Lynn Fells Pkwy",
      "municipality": "Saugus",
      "latitude": 42.471996,
      "longitude": -71.035076,
      "parentStationId": null,
      "vehicleType": 3,
      "platformCode": null
    },
    {
      "stopId": "135",
      "name": "Columbia Rd @ Pond St",
      "municipality": "Boston",
      "latitude": 42.3201,
      "longitude": -71.060824,
      "parentStationId": null,
      "vehicleType": 3,
      "platformCode": null
    },
    {
      "stopId": "4046",
      "name": "North St @ Pictun Rd",
      "municipality": "Randolph",
      "latitude": 42.179659,
      "longitude": -71.029679,
      "parentStationId": null,
      "vehicleType": 3,
      "platformCode": null
    },
    {
      "stopId": "5923",
      "name": "Upham St @ East St",
      "municipality": "Melrose",
      "latitude": 42.458977,
      "longitude": -71.048852,
      "parentStationId": null,
      "vehicleType": 3,
      "platformCode": null
    },
    {
      "stopId": "5505",
      "name": "173 Alford St",
      "municipality": "Boston",
      "latitude": 42.392843,
      "longitude": -71.068478,
      "parentStationId": null,
      "vehicleType": 3,
      "platformCode": null
    },
    {
      "stopId": "41",
      "name": "E Broadway @ L St",
      "municipality": "Boston",
      "latitude": 42.335658,
      "longitude": -71.035628,
      "parentStationId": null,
      "vehicleType": 3,
      "platformCode": null
    },
    {
      "stopId": "3321",
      "name": "Palmer St opp Wilgus Rd",
      "municipality": "Quincy",
      "latitude": 42.258773,
      "longitude": -70.975882,
      "parentStationId": null,
      "vehicleType": 3,
      "platformCode": null
    },
    {
      "stopId": "5542",
      "name": "Park Ave @ Irving St",
      "municipality": "Revere",
      "latitude": 42.413145,
      "longitude": -71.023808,
      "parentStationId": null,
      "vehicleType": 3,
      "platformCode": null
    },
    {
      "stopId": "3117",
      "name": "Harvard St @ Holbrook Rd.",
      "municipality": "Quincy",
      "latitude": 42.267541,
      "longitude": -71.03649,
      "parentStationId": null,
      "vehicleType": 3,
      "platformCode": null
    },
    {
      "stopId": "3259",
      "name": "Sea St @ Manet Ave",
      "municipality": "Quincy",
      "latitude": 42.267693,
      "longitude": -70.956944,
      "parentStationId": null,
      "vehicleType": 3,
      "platformCode": null
    },
    {
      "stopId": "608",
      "name": "Washington St @ W Roxbury Pkwy",
      "municipality": "Boston",
      "latitude": 42.275418,
      "longitude": -71.140573,
      "parentStationId": null,
      "vehicleType": 3,
      "platformCode": null
    },
    {
      "stopId": "77",
      "name": "Massachusetts Ave @ Marlborough St",
      "municipality": "Boston",
      "latitude": 42.34995,
      "longitude": -71.089148,
      "parentStationId": null,
      "vehicleType": 3,
      "platformCode": null
    },
    {
      "stopId": "8212",
      "name": "Oak St @ Elliot St",
      "municipality": "Newton",
      "latitude": 42.312554,
      "longitude": -71.221176,
      "parentStationId": null,
      "vehicleType": 3,
      "platformCode": null
    },
    {
      "stopId": "ER-0276-S",
      "name": "Ipswich",
      "municipality": "Ipswich",
      "latitude": 42.676921,
      "longitude": -70.840589,
      "parentStationId": "place-ER-0276",
      "vehicleType": 2,
      "platformCode": "1"
    },
    {
      "stopId": "1168",
      "name": "Washington St @ Townsend St",
      "municipality": "Boston",
      "latitude": 42.319958,
      "longitude": -71.094067,
      "parentStationId": null,
      "vehicleType": 3,
      "platformCode": null
    },
    {
      "stopId": "1056",
      "name": "River St @ Fairmont St",
      "municipality": "Cambridge",
      "latitude": 42.362565,
      "longitude": -71.112387,
      "parentStationId": null,
      "vehicleType": 3,
      "platformCode": null
    },
    {
      "stopId": "7632",
      "name": "Washington St @ Harvard St",
      "municipality": "Newton",
      "latitude": 42.352639,
      "longitude": -71.202328,
      "parentStationId": null,
      "vehicleType": 3,
      "platformCode": null
    },
    {
      "stopId": "6281",
      "name": "Malden St opp Stark Ave",
      "municipality": "Revere",
      "latitude": 42.417758,
      "longitude": -71.010387,
      "parentStationId": null,
      "vehicleType": 3,
      "platformCode": null
    },
    {
      "stopId": "7818",
      "name": "Rumford Ave @ Woerd Ave",
      "municipality": "Waltham",
      "latitude": 42.361044,
      "longitude": -71.245653,
      "parentStationId": null,
      "vehicleType": 3,
      "platformCode": null
    },
    {
      "stopId": "190",
      "name": "Congress St @ State St",
      "municipality": "Boston",
      "latitude": 42.358789,
      "longitude": -71.056733,
      "parentStationId": null,
      "vehicleType": 3,
      "platformCode": null
    },
    {
      "stopId": "6376",
      "name": "River St @ Metropolitan Ave",
      "municipality": "Boston",
      "latitude": 42.260492,
      "longitude": -71.115601,
      "parentStationId": null,
      "vehicleType": 3,
      "platformCode": null
    },
    {
      "stopId": "2478",
      "name": "Lake St @ Rt 2 East on Ramp",
      "municipality": "Belmont",
      "latitude": 42.402279,
      "longitude": -71.15773,
      "parentStationId": null,
      "vehicleType": 3,
      "platformCode": null
    },
    {
      "stopId": "327",
      "name": "Dorchester Ave @ Melville Ave",
      "municipality": "Boston",
      "latitude": 42.296156,
      "longitude": -71.0614,
      "parentStationId": null,
      "vehicleType": 3,
      "platformCode": null
    },
    {
      "stopId": "5844",
      "name": "Bennington St @ Curtis St",
      "municipality": "Boston",
      "latitude": 42.381875,
      "longitude": -71.020555,
      "parentStationId": null,
      "vehicleType": 3,
      "platformCode": null
    },
    {
      "stopId": "71618",
      "name": "38 Washington St opp Sumner St",
      "municipality": "Dedham",
      "latitude": 42.256336,
      "longitude": -71.162993,
      "parentStationId": null,
      "vehicleType": 3,
      "platformCode": null
    },
    {
      "stopId": "5222",
      "name": "Centre St @ Ardale St",
      "municipality": "Boston",
      "latitude": 42.293246,
      "longitude": -71.137342,
      "parentStationId": null,
      "vehicleType": 3,
      "platformCode": null
    },
    {
      "stopId": "9306",
      "name": "North Ave @ Church St",
      "municipality": "Wakefield",
      "latitude": 42.505569,
      "longitude": -71.078406,
      "parentStationId": null,
      "vehicleType": 3,
      "platformCode": null
    },
    {
      "stopId": "8168",
      "name": "Walnut St @ Page Rd",
      "municipality": "Newton",
      "latitude": 42.353479,
      "longitude": -71.208007,
      "parentStationId": null,
      "vehicleType": 3,
      "platformCode": null
    },
    {
      "stopId": "4349",
      "name": "Brook Rd @ Brandon Rd",
      "municipality": "Milton",
      "latitude": 42.262474,
      "longitude": -71.089566,
      "parentStationId": null,
      "vehicleType": 3,
      "platformCode": null
    },
    {
      "stopId": "6573",
      "name": "S Huntington Ave @ VA Hospital",
      "municipality": "Boston",
      "latitude": 42.326594,
      "longitude": -71.111284,
      "parentStationId": null,
      "vehicleType": 3,
      "platformCode": null
    },
    {
      "stopId": "70102",
      "name": "Quincy Center",
      "municipality": "Quincy",
      "latitude": 42.251809,
      "longitude": -71.005409,
      "parentStationId": "place-qnctr",
      "vehicleType": 1,
      "platformCode": "1"
    },
    {
      "stopId": "4371",
      "name": "Pleasant St @ Lawrence Rd",
      "municipality": "Milton",
      "latitude": 42.251468,
      "longitude": -71.055127,
      "parentStationId": null,
      "vehicleType": 3,
      "platformCode": null
    },
    {
      "stopId": "18144",
      "name": "Webster St opp Elder Rd",
      "municipality": "Needham",
      "latitude": 42.303917,
      "longitude": -71.235576,
      "parentStationId": null,
      "vehicleType": 3,
      "platformCode": null
    },
    {
      "stopId": "525",
      "name": "Morton St @ Greendale Rd",
      "municipality": "Boston",
      "latitude": 42.28537,
      "longitude": -71.093181,
      "parentStationId": null,
      "vehicleType": 3,
      "platformCode": null
    },
    {
      "stopId": "973",
      "name": "Washington St @ Market St",
      "municipality": "Boston",
      "latitude": 42.349206,
      "longitude": -71.15404,
      "parentStationId": null,
      "vehicleType": 3,
      "platformCode": null
    },
    {
      "stopId": "5760",
      "name": "Broadway @ Beach St",
      "municipality": "Revere",
      "latitude": 42.406365,
      "longitude": -71.014559,
      "parentStationId": null,
      "vehicleType": 3,
      "platformCode": null
    },
    {
      "stopId": "3387",
      "name": "Granite Ave opp Emerson Rd",
      "municipality": "Milton",
      "latitude": 42.261736,
      "longitude": -71.043101,
      "parentStationId": null,
      "vehicleType": 3,
      "platformCode": null
    },
    {
      "stopId": "8147",
      "name": "Oak St @ Elliot St",
      "municipality": "Newton",
      "latitude": 42.312557,
      "longitude": -71.221019,
      "parentStationId": null,
      "vehicleType": 3,
      "platformCode": null
    },
    {
      "stopId": "5230",
      "name": "Centre St opp Louders Ln",
      "municipality": "Boston",
      "latitude": 42.305854,
      "longitude": -71.12422,
      "parentStationId": null,
      "vehicleType": 3,
      "platformCode": null
    },
    {
      "stopId": "6836",
      "name": "Fayette St @ Trinity Ave",
      "municipality": "Lynn",
      "latitude": 42.469101,
      "longitude": -70.935401,
      "parentStationId": null,
      "vehicleType": 3,
      "platformCode": null
    },
    {
      "stopId": "3458",
      "name": "Beale St @ N Central Ave",
      "municipality": "Quincy",
      "latitude": 42.261898,
      "longitude": -71.024802,
      "parentStationId": null,
      "vehicleType": 3,
      "platformCode": null
    },
    {
      "stopId": "70233",
      "name": "Dean Road",
      "municipality": "Brookline",
      "latitude": 42.337807,
      "longitude": -71.141753,
      "parentStationId": "place-denrd",
      "vehicleType": 0,
      "platformCode": null
    },
    {
      "stopId": "70155",
      "name": "Copley",
      "municipality": "Boston",
      "latitude": 42.350126,
      "longitude": -71.077376,
      "parentStationId": "place-coecl",
      "vehicleType": 0,
      "platformCode": null
    },
    {
      "stopId": "2757",
      "name": "Cambridge St @ Brighton St",
      "municipality": "Boston",
      "latitude": 42.38258,
      "longitude": -71.078386,
      "parentStationId": null,
      "vehicleType": 3,
      "platformCode": null
    },
    {
      "stopId": "77244",
      "name": "Hammond St @ Columbus Ave",
      "municipality": "Waltham",
      "latitude": 42.3788,
      "longitude": -71.246781,
      "parentStationId": null,
      "vehicleType": 3,
      "platformCode": null
    },
    {
      "stopId": "7450",
      "name": "Summer St @ Dearborn Ave",
      "municipality": "Lynn",
      "latitude": 42.458786,
      "longitude": -70.977128,
      "parentStationId": null,
      "vehicleType": 3,
      "platformCode": null
    },
    {
      "stopId": "1750",
      "name": "Heath St @ Walden St",
      "municipality": "Boston",
      "latitude": 42.326014,
      "longitude": -71.104744,
      "parentStationId": null,
      "vehicleType": 3,
      "platformCode": null
    },
    {
      "stopId": "70096",
      "name": "JFK/UMass",
      "municipality": "Boston",
      "latitude": 42.320434,
      "longitude": -71.052215,
      "parentStationId": "place-jfk",
      "vehicleType": 1,
      "platformCode": null
    },
    {
      "stopId": "6548",
      "name": "Devonshire St @ Milk St",
      "municipality": "Boston",
      "latitude": 42.356837,
      "longitude": -71.057414,
      "parentStationId": null,
      "vehicleType": 3,
      "platformCode": null
    },
    {
      "stopId": "2880",
      "name": "Mystic Ave @ Shore Dr",
      "municipality": "Somerville",
      "latitude": 42.397237,
      "longitude": -71.091127,
      "parentStationId": null,
      "vehicleType": 3,
      "platformCode": null
    },
    {
      "stopId": "1923",
      "name": "Boylston St @ Jersey St",
      "municipality": "Boston",
      "latitude": 42.344621,
      "longitude": -71.097778,
      "parentStationId": null,
      "vehicleType": 3,
      "platformCode": null
    },
    {
      "stopId": "5248",
      "name": "Centre St @ Buchanan Rd",
      "municipality": "Boston",
      "latitude": 42.295993,
      "longitude": -71.134235,
      "parentStationId": null,
      "vehicleType": 3,
      "platformCode": null
    },
    {
      "stopId": "8182",
      "name": "Watertown St opp Morse St",
      "municipality": "Watertown",
      "latitude": 42.362688,
      "longitude": -71.192143,
      "parentStationId": null,
      "vehicleType": 3,
      "platformCode": null
    },
    {
      "stopId": "4186",
      "name": "N Main St @ West St",
      "municipality": "Randolph",
      "latitude": 42.169097,
      "longitude": -71.045626,
      "parentStationId": null,
      "vehicleType": 3,
      "platformCode": null
    },
    {
      "stopId": "9061",
      "name": "Salem St @ Spruce St",
      "municipality": "Malden",
      "latitude": 42.433812,
      "longitude": -71.043512,
      "parentStationId": null,
      "vehicleType": 3,
      "platformCode": null
    },
    {
      "stopId": "6528",
      "name": "Reservation Rd @ Thompson St",
      "municipality": "Boston",
      "latitude": 42.253519,
      "longitude": -71.132125,
      "parentStationId": null,
      "vehicleType": 3,
      "platformCode": null
    },
    {
      "stopId": "250",
      "name": "B St @ W 5th St",
      "municipality": "Boston",
      "latitude": 42.339575,
      "longitude": -71.055477,
      "parentStationId": null,
      "vehicleType": 3,
      "platformCode": null
    },
    {
      "stopId": "1679",
      "name": "254 Cambridge Rd",
      "municipality": "Woburn",
      "latitude": 42.461377,
      "longitude": -71.171197,
      "parentStationId": null,
      "vehicleType": 3,
      "platformCode": null
    },
    {
      "stopId": "55011",
      "name": "Alford St @ MWRA Pump Station",
      "municipality": "Boston",
      "latitude": 42.391021,
      "longitude": -71.070228,
      "parentStationId": null,
      "vehicleType": 3,
      "platformCode": null
    },
    {
      "stopId": "3473",
      "name": "Adams St @ Wharf St",
      "municipality": "Milton",
      "latitude": 42.269454,
      "longitude": -71.06745,
      "parentStationId": null,
      "vehicleType": 3,
      "platformCode": null
    },
    {
      "stopId": "7907",
      "name": "Bedford St @ Reed St",
      "municipality": "Lexington",
      "latitude": 42.458073,
      "longitude": -71.237239,
      "parentStationId": null,
      "vehicleType": 3,
      "platformCode": null
    },
    {
      "stopId": "18581",
      "name": "Walter St opp Ashfield St",
      "municipality": "Boston",
      "latitude": 42.291142,
      "longitude": -71.132098,
      "parentStationId": null,
      "vehicleType": 3,
      "platformCode": null
    },
    {
      "stopId": "3158",
      "name": "E Squantum @ Ditmar St",
      "municipality": "Quincy",
      "latitude": 42.28633,
      "longitude": -71.024886,
      "parentStationId": null,
      "vehicleType": 3,
      "platformCode": null
    },
    {
      "stopId": "1808",
      "name": "Park Dr @ Beacon St",
      "municipality": "Boston",
      "latitude": 42.3471,
      "longitude": -71.105198,
      "parentStationId": null,
      "vehicleType": 3,
      "platformCode": null
    },
    {
      "stopId": "11244",
      "name": "South Bay Mall @ Allstate Rd",
      "municipality": "Boston",
      "latitude": 42.326102,
      "longitude": -71.062666,
      "parentStationId": null,
      "vehicleType": 3,
      "platformCode": null
    },
    {
      "stopId": "70144",
      "name": "Boston University Central",
      "municipality": "Boston",
      "latitude": 42.350013,
      "longitude": -71.106902,
      "parentStationId": "place-bucen",
      "vehicleType": 0,
      "platformCode": null
    },
    {
      "stopId": "70268",
      "name": "Milton",
      "municipality": "Milton",
      "latitude": 42.270308,
      "longitude": -71.067289,
      "parentStationId": "place-miltt",
      "vehicleType": 0,
      "platformCode": null
    },
    {
      "stopId": "81651",
      "name": "Walnut St @ Washington Pk",
      "municipality": "Newton",
      "latitude": 42.349069,
      "longitude": -71.20674,
      "parentStationId": null,
      "vehicleType": 3,
      "platformCode": null
    },
    {
      "stopId": "5098",
      "name": "Washington St @ E Berkeley St",
      "municipality": "Boston",
      "latitude": 42.343739,
      "longitude": -71.066256,
      "parentStationId": null,
      "vehicleType": 3,
      "platformCode": null
    },
    {
      "stopId": "4824",
      "name": "Humphrey St @ Palmer Ave",
      "municipality": "Swampscott",
      "latitude": 42.473987,
      "longitude": -70.894142,
      "parentStationId": null,
      "vehicleType": 3,
      "platformCode": null
    },
    {
      "stopId": "4382",
      "name": "Adams St @ Alrick Rd",
      "municipality": "Quincy",
      "latitude": 42.254539,
      "longitude": -71.028377,
      "parentStationId": null,
      "vehicleType": 3,
      "platformCode": null
    },
    {
      "stopId": "2487",
      "name": "Appleton St @ Ely Rd",
      "municipality": "Arlington",
      "latitude": 42.420017,
      "longitude": -71.189071,
      "parentStationId": null,
      "vehicleType": 3,
      "platformCode": null
    },
    {
      "stopId": "609",
      "name": "Washington St @ Lagrange St",
      "municipality": "Boston",
      "latitude": 42.272872,
      "longitude": -71.143932,
      "parentStationId": null,
      "vehicleType": 3,
      "platformCode": null
    },
    {
      "stopId": "8671",
      "name": "Main St @ Chamberlain Terr",
      "municipality": "Waltham",
      "latitude": 42.377556,
      "longitude": -71.226086,
      "parentStationId": null,
      "vehicleType": 3,
      "platformCode": null
    },
    {
      "stopId": "7415",
      "name": "Squire Rd opp Super Stop + Shop",
      "municipality": "Revere",
      "latitude": 42.430745,
      "longitude": -71.020858,
      "parentStationId": null,
      "vehicleType": 3,
      "platformCode": null
    },
    {
      "stopId": "3720",
      "name": "Quincy Ave opp Dewey Rd",
      "municipality": "Braintree",
      "latitude": 42.232414,
      "longitude": -70.974992,
      "parentStationId": null,
      "vehicleType": 3,
      "platformCode": null
    },
    {
      "stopId": "70218",
      "name": "Saint Paul Street",
      "municipality": "Brookline",
      "latitude": 42.343118,
      "longitude": -71.117498,
      "parentStationId": "place-stpul",
      "vehicleType": 0,
      "platformCode": null
    },
    {
      "stopId": "71855",
      "name": "Stuart St @ Dartmouth St",
      "municipality": "Boston",
      "latitude": 42.348245,
      "longitude": -71.076218,
      "parentStationId": null,
      "vehicleType": 3,
      "platformCode": null
    },
    {
      "stopId": "2691",
      "name": "Broadway opp Packard Ave",
      "municipality": "Somerville",
      "latitude": 42.402309,
      "longitude": -71.12519,
      "parentStationId": null,
      "vehicleType": 3,
      "platformCode": null
    },
    {
      "stopId": "3900",
      "name": "N Franklin St @ Jewel Rd",
      "municipality": "Holbrook",
      "latitude": 42.155852,
      "longitude": -71.008642,
      "parentStationId": null,
      "vehicleType": 3,
      "platformCode": null
    },
    {
      "stopId": "920",
      "name": "Cambridge St @ Washington St",
      "municipality": "Boston",
      "latitude": 42.348903,
      "longitude": -71.150156,
      "parentStationId": null,
      "vehicleType": 3,
      "platformCode": null
    },
    {
      "stopId": "91852",
      "name": "Needham Junction",
      "municipality": "Needham",
      "latitude": 42.273039,
      "longitude": -71.237947,
      "parentStationId": "place-NB-0120",
      "vehicleType": 3,
      "platformCode": null
    },
    {
      "stopId": "7519",
      "name": "Essex St @ Putnam St",
      "municipality": "Saugus",
      "latitude": 42.452085,
      "longitude": -71.017513,
      "parentStationId": null,
      "vehicleType": 3,
      "platformCode": null
    },
    {
      "stopId": "FR-0451-01",
      "name": "North Leominster",
      "municipality": "Leominster",
      "latitude": 42.539017,
      "longitude": -71.739186,
      "parentStationId": "place-FR-0451",
      "vehicleType": 2,
      "platformCode": "1"
    },
    {
      "stopId": "WR-0264-B2",
      "name": "Lawrence - Busway",
      "municipality": "Lawrence",
      "latitude": 42.701961,
      "longitude": -71.152442,
      "parentStationId": "place-WR-0264",
      "vehicleType": 3,
      "platformCode": null
    },
    {
      "stopId": "1780",
      "name": "Longwood Ave @ Blackfan St",
      "municipality": "Boston",
      "latitude": 42.337436,
      "longitude": -71.104448,
      "parentStationId": null,
      "vehicleType": 3,
      "platformCode": null
    },
    {
      "stopId": "51835",
      "name": "Lee St @ Sears Rd",
      "municipality": "Brookline",
      "latitude": 42.318402,
      "longitude": -71.14092,
      "parentStationId": null,
      "vehicleType": 3,
      "platformCode": null
    },
    {
      "stopId": "5788",
      "name": "Central Ave @ School St",
      "municipality": "Revere",
      "latitude": 42.408978,
      "longitude": -71.008839,
      "parentStationId": null,
      "vehicleType": 3,
      "platformCode": null
    },
    {
      "stopId": "4240",
      "name": "S Main St @ Centre St",
      "municipality": "Randolph",
      "latitude": 42.14449,
      "longitude": -71.041408,
      "parentStationId": null,
      "vehicleType": 3,
      "platformCode": null
    },
    {
      "stopId": "7548",
      "name": "Broadway @ A St",
      "municipality": "Melrose",
      "latitude": 42.445043,
      "longitude": -71.028216,
      "parentStationId": null,
      "vehicleType": 3,
      "platformCode": null
    },
    {
      "stopId": "5211",
      "name": "Park St opp Gertrude Rd",
      "municipality": "Boston",
      "latitude": 42.280761,
      "longitude": -71.148451,
      "parentStationId": null,
      "vehicleType": 3,
      "platformCode": null
    },
    {
      "stopId": "2792",
      "name": "Poplar St @ Deforest St",
      "municipality": "Boston",
      "latitude": 42.271001,
      "longitude": -71.131905,
      "parentStationId": null,
      "vehicleType": 3,
      "platformCode": null
    },
    {
      "stopId": "75791",
      "name": "Warren St @ Webster Rd",
      "municipality": "Waltham",
      "latitude": 42.38166,
      "longitude": -71.201237,
      "parentStationId": null,
      "vehicleType": 3,
      "platformCode": null
    },
    {
      "stopId": "2510",
      "name": "Somerville Ave @ Union Square",
      "municipality": "Somerville",
      "latitude": 42.379996,
      "longitude": -71.096698,
      "parentStationId": null,
      "vehicleType": 3,
      "platformCode": null
    },
    {
      "stopId": "70242",
      "name": "Symphony",
      "municipality": "Boston",
      "latitude": 42.342687,
      "longitude": -71.085056,
      "parentStationId": "place-symcl",
      "vehicleType": 0,
      "platformCode": null
    },
    {
      "stopId": "45834",
      "name": "Cushman Ave @ Newhall St",
      "municipality": "Revere",
      "latitude": 42.418603,
      "longitude": -71.018902,
      "parentStationId": null,
      "vehicleType": 3,
      "platformCode": null
    },
    {
      "stopId": "246",
      "name": "Summer St @ Pappas Way",
      "municipality": "Boston",
      "latitude": 42.344167,
      "longitude": -71.039113,
      "parentStationId": null,
      "vehicleType": 3,
      "platformCode": null
    },
    {
      "stopId": "5620",
      "name": "Washington Ave @ Cary Ave",
      "municipality": "Chelsea",
      "latitude": 42.398055,
      "longitude": -71.030839,
      "parentStationId": null,
      "vehicleType": 3,
      "platformCode": null
    },
    {
      "stopId": "962",
      "name": "Brighton Ave @ Linden St",
      "municipality": "Boston",
      "latitude": 42.352908,
      "longitude": -71.130286,
      "parentStationId": null,
      "vehicleType": 3,
      "platformCode": null
    },
    {
      "stopId": "76479",
      "name": "Hyde Park Ave @ Walk Hill St",
      "municipality": "Boston",
      "latitude": 42.296076,
      "longitude": -71.116079,
      "parentStationId": null,
      "vehicleType": 3,
      "platformCode": null
    },
    {
      "stopId": "15970",
      "name": "Pleasant St opp Converse Ln",
      "municipality": "Melrose",
      "latitude": 42.446076,
      "longitude": -71.071749,
      "parentStationId": null,
      "vehicleType": 3,
      "platformCode": null
    },
    {
      "stopId": "71630",
      "name": "Blue Hill Ave from Hollingsworth Rd to Craig St",
      "municipality": "Milton",
      "latitude": 42.2516,
      "longitude": -71.10152,
      "parentStationId": null,
      "vehicleType": 3,
      "platformCode": null
    },
    {
      "stopId": "3216",
      "name": "Billings Rd @ Felton St",
      "municipality": "Quincy",
      "latitude": 42.274369,
      "longitude": -71.023884,
      "parentStationId": null,
      "vehicleType": 3,
      "platformCode": null
    },
    {
      "stopId": "1617",
      "name": "Opp 67 Crown Point Dr",
      "municipality": "Boston",
      "latitude": 42.257205,
      "longitude": -71.146429,
      "parentStationId": null,
      "vehicleType": 3,
      "platformCode": null
    },
    {
      "stopId": "1552",
      "name": "High St @ Cypress St",
      "municipality": "Brookline",
      "latitude": 42.324798,
      "longitude": -71.121275,
      "parentStationId": null,
      "vehicleType": 3,
      "platformCode": null
    },
    {
      "stopId": "5983",
      "name": "Pleasant St @ Frances St",
      "municipality": "Melrose",
      "latitude": 42.449478,
      "longitude": -71.07064,
      "parentStationId": null,
      "vehicleType": 3,
      "platformCode": null
    },
    {
      "stopId": "17591",
      "name": "56 Main St",
      "municipality": "Saugus",
      "latitude": 42.464471,
      "longitude": -71.014587,
      "parentStationId": null,
      "vehicleType": 3,
      "platformCode": null
    },
    {
      "stopId": "6717",
      "name": "Walnut St opp Central St",
      "municipality": "Saugus",
      "latitude": 42.484,
      "longitude": -71.011385,
      "parentStationId": null,
      "vehicleType": 3,
      "platformCode": null
    },
    {
      "stopId": "1574",
      "name": "Blue Hill Ave @ Moreland St",
      "municipality": "Boston",
      "latitude": 42.322776,
      "longitude": -71.076673,
      "parentStationId": null,
      "vehicleType": 3,
      "platformCode": null
    },
    {
      "stopId": "6208",
      "name": "Main St @ Vine St",
      "municipality": "Saugus",
      "latitude": 42.464335,
      "longitude": -71.018868,
      "parentStationId": null,
      "vehicleType": 3,
      "platformCode": null
    },
    {
      "stopId": "2598",
      "name": "Somerville Ave @ Linden St",
      "municipality": "Somerville",
      "latitude": 42.378506,
      "longitude": -71.09271,
      "parentStationId": null,
      "vehicleType": 3,
      "platformCode": null
    },
    {
      "stopId": "3344",
      "name": "Copeland St @ Badgers Ln",
      "municipality": "Quincy",
      "latitude": 42.245476,
      "longitude": -71.030007,
      "parentStationId": null,
      "vehicleType": 3,
      "platformCode": null
    },
    {
      "stopId": "70090",
      "name": "Fields Corner",
      "municipality": "Boston",
      "latitude": 42.299935,
      "longitude": -71.061945,
      "parentStationId": "place-fldcr",
      "vehicleType": 1,
      "platformCode": null
    },
    {
      "stopId": "5692",
      "name": "Chelsea St @ Chelsea Pl",
      "municipality": "Everett",
      "latitude": 42.405534,
      "longitude": -71.052426,
      "parentStationId": null,
      "vehicleType": 3,
      "platformCode": null
    },
    {
      "stopId": "6841",
      "name": "Timson St @ Eastern Ave",
      "municipality": "Lynn",
      "latitude": 42.473682,
      "longitude": -70.927676,
      "parentStationId": null,
      "vehicleType": 3,
      "platformCode": null
    },
    {
      "stopId": "1939",
      "name": "775 Centre St",
      "municipality": "Boston",
      "latitude": 42.309949,
      "longitude": -71.115345,
      "parentStationId": null,
      "vehicleType": 3,
      "platformCode": null
    },
    {
      "stopId": "25982",
      "name": "Pond St opp Stone Zoo",
      "municipality": "Stoneham",
      "latitude": 42.463444,
      "longitude": -71.091729,
      "parentStationId": null,
      "vehicleType": 3,
      "platformCode": null
    },
    {
      "stopId": "2920",
      "name": "Columbia Rd @ Seaver St",
      "municipality": "Boston",
      "latitude": 42.30431,
      "longitude": -71.082426,
      "parentStationId": null,
      "vehicleType": 3,
      "platformCode": null
    },
    {
      "stopId": "4712",
      "name": "N Shore Rd @ Oak Island St",
      "municipality": "Revere",
      "latitude": 42.425253,
      "longitude": -70.986172,
      "parentStationId": null,
      "vehicleType": 3,
      "platformCode": null
    },
    {
      "stopId": "4927",
      "name": "Washington St @ Aborn St",
      "municipality": "Peabody",
      "latitude": 42.521226,
      "longitude": -70.926143,
      "parentStationId": null,
      "vehicleType": 3,
      "platformCode": null
    },
    {
      "stopId": "4222",
      "name": "S Main St @ Stoughton St",
      "municipality": "Randolph",
      "latitude": 42.150475,
      "longitude": -71.04427,
      "parentStationId": null,
      "vehicleType": 3,
      "platformCode": null
    },
    {
      "stopId": "16498",
      "name": "Hyde Park Ave @ Metropolitan Ave",
      "municipality": "Boston",
      "latitude": 42.270468,
      "longitude": -71.120666,
      "parentStationId": null,
      "vehicleType": 3,
      "platformCode": null
    },
    {
      "stopId": "6",
      "name": "Melnea Cass Blvd @ Harrison Ave",
      "municipality": "Boston",
      "latitude": 42.332016,
      "longitude": -71.079576,
      "parentStationId": null,
      "vehicleType": 3,
      "platformCode": null
    },
    {
      "stopId": "4474",
      "name": "Western Ave opp Victory Rd",
      "municipality": "Lynn",
      "latitude": 42.48655,
      "longitude": -70.939816,
      "parentStationId": null,
      "vehicleType": 3,
      "platformCode": null
    },
    {
      "stopId": "70500",
      "name": "Lechmere",
      "municipality": "Cambridge",
      "latitude": 42.371962,
      "longitude": -71.07752,
      "parentStationId": "place-lech",
      "vehicleType": 3,
      "platformCode": null
    },
    {
      "stopId": "5628",
      "name": "Sagamore Ave @ Garfield Ave",
      "municipality": "Chelsea",
      "latitude": 42.405285,
      "longitude": -71.029993,
      "parentStationId": null,
      "vehicleType": 3,
      "platformCode": null
    },
    {
      "stopId": "7891",
      "name": "Great Rd @ Roberts Dr",
      "municipality": "Bedford",
      "latitude": 42.487656,
      "longitude": -71.266435,
      "parentStationId": null,
      "vehicleType": 3,
      "platformCode": null
    },
    {
      "stopId": "266",
      "name": "E 8th St @ M St",
      "municipality": "Boston",
      "latitude": 42.331439,
      "longitude": -71.033352,
      "parentStationId": null,
      "vehicleType": 3,
      "platformCode": null
    },
    {
      "stopId": "FR-0451-B",
      "name": "North Leominster - Busway",
      "municipality": "Leominster",
      "latitude": 42.538727,
      "longitude": -71.739104,
      "parentStationId": "place-FR-0451",
      "vehicleType": 3,
      "platformCode": null
    },
    {
      "stopId": "86940",
      "name": "Main St @ Harvard St",
      "municipality": "Waltham",
      "latitude": 42.376184,
      "longitude": -71.243664,
      "parentStationId": null,
      "vehicleType": 3,
      "platformCode": null
    },
    {
      "stopId": "3052",
      "name": "Hancock St @ Willet St",
      "municipality": "Quincy",
      "latitude": 42.268787,
      "longitude": -71.017837,
      "parentStationId": null,
      "vehicleType": 3,
      "platformCode": null
    },
    {
      "stopId": "21158",
      "name": "Harrison Ave opp Plympton St",
      "municipality": "Boston",
      "latitude": 42.339855,
      "longitude": -71.069091,
      "parentStationId": null,
      "vehicleType": 3,
      "platformCode": null
    },
    {
      "stopId": "85618",
      "name": "935 East St",
      "municipality": "Walpole",
      "latitude": 42.147098,
      "longitude": -71.251475,
      "parentStationId": null,
      "vehicleType": 3,
      "platformCode": null
    },
    {
      "stopId": "4035",
      "name": "Granite St @ Lundquist Dr",
      "municipality": "Braintree",
      "latitude": 42.202928,
      "longitude": -71.024,
      "parentStationId": null,
      "vehicleType": 3,
      "platformCode": null
    },
    {
      "stopId": "59618",
      "name": "Washington St @ Cottage St",
      "municipality": "Norwood",
      "latitude": 42.193915,
      "longitude": -71.200888,
      "parentStationId": null,
      "vehicleType": 3,
      "platformCode": null
    },
    {
      "stopId": "7516",
      "name": "Essex St @ Staaf Rd",
      "municipality": "Saugus",
      "latitude": 42.448828,
      "longitude": -71.01102,
      "parentStationId": null,
      "vehicleType": 3,
      "platformCode": null
    },
    {
      "stopId": "FR-0361-01",
      "name": "Ayer",
      "municipality": "Ayer",
      "latitude": 42.559074,
      "longitude": -71.588476,
      "parentStationId": "place-FR-0361",
      "vehicleType": 2,
      "platformCode": "1"
    },
    {
      "stopId": "4570",
      "name": "Lynnfield St @ Bartholomew St",
      "municipality": "Peabody",
      "latitude": 42.512898,
      "longitude": -70.980737,
      "parentStationId": null,
      "vehicleType": 3,
      "platformCode": null
    },
    {
      "stopId": "NB-0072-B1",
      "name": "Bellevue - Belgrade Ave @ McCraw St",
      "municipality": "Boston",
      "latitude": 42.285984,
      "longitude": -71.145019,
      "parentStationId": "place-NB-0072",
      "vehicleType": 3,
      "platformCode": null
    },
    {
      "stopId": "3893",
      "name": "N Franklin St opp Damon Ave",
      "municipality": "Holbrook",
      "latitude": 42.164464,
      "longitude": -71.006941,
      "parentStationId": null,
      "vehicleType": 3,
      "platformCode": null
    },
    {
      "stopId": "7178",
      "name": "Cabot St opp Simon St",
      "municipality": "Beverly",
      "latitude": 42.559243,
      "longitude": -70.882538,
      "parentStationId": null,
      "vehicleType": 3,
      "platformCode": null
    },
    {
      "stopId": "1242",
      "name": "Tremont St @ Charles St S",
      "municipality": "Boston",
      "latitude": 42.348777,
      "longitude": -71.066481,
      "parentStationId": null,
      "vehicleType": 3,
      "platformCode": null
    },
    {
      "stopId": "1114",
      "name": "Cambridge St @ N Harvard St",
      "municipality": "Boston",
      "latitude": 42.357758,
      "longitude": -71.126505,
      "parentStationId": null,
      "vehicleType": 3,
      "platformCode": null
    },
    {
      "stopId": "7960",
      "name": "Forest St @ Thomas St",
      "municipality": "Arlington",
      "latitude": 42.434309,
      "longitude": -71.175483,
      "parentStationId": null,
      "vehicleType": 3,
      "platformCode": null
    },
    {
      "stopId": "41111",
      "name": "250 Mt Vernon St @ Geiger Gibson Health Center",
      "municipality": "Boston",
      "latitude": 42.319029,
      "longitude": -71.045472,
      "parentStationId": null,
      "vehicleType": 3,
      "platformCode": null
    },
    {
      "stopId": "2347",
      "name": "Cross St @ Staunton Rd",
      "municipality": "Belmont",
      "latitude": 42.401311,
      "longitude": -71.162861,
      "parentStationId": null,
      "vehicleType": 3,
      "platformCode": null
    },
    {
      "stopId": "6607",
      "name": "Lynnway Rotary @ Nahant Rd",
      "municipality": "Nahant",
      "latitude": 42.456421,
      "longitude": -70.937571,
      "parentStationId": null,
      "vehicleType": 3,
      "platformCode": null
    },
    {
      "stopId": "2700",
      "name": "Broadway @ Medford St - Magoun Sq",
      "municipality": "Somerville",
      "latitude": 42.397203,
      "longitude": -71.104096,
      "parentStationId": null,
      "vehicleType": 3,
      "platformCode": null
    },
    {
      "stopId": "2189",
      "name": "Bright Rd @ Washington St",
      "municipality": "Belmont",
      "latitude": 42.387126,
      "longitude": -71.161003,
      "parentStationId": null,
      "vehicleType": 3,
      "platformCode": null
    },
    {
      "stopId": "14717",
      "name": "American Legion Hwy @ Beach St - Bell Circle",
      "municipality": "Revere",
      "latitude": 42.409782,
      "longitude": -71.002099,
      "parentStationId": null,
      "vehicleType": 3,
      "platformCode": null
    },
    {
      "stopId": "15976",
      "name": "Wyoming Ave @ Cleveland St",
      "municipality": "Melrose",
      "latitude": 42.4537,
      "longitude": -71.07485,
      "parentStationId": null,
      "vehicleType": 3,
      "platformCode": null
    },
    {
      "stopId": "74635",
      "name": "Box District",
      "municipality": "Chelsea",
      "latitude": 42.394168,
      "longitude": -71.028452,
      "parentStationId": "place-boxdt",
      "vehicleType": 3,
      "platformCode": null
    },
    {
      "stopId": "8460",
      "name": "Loomis St @ Great Rd",
      "municipality": "Bedford",
      "latitude": 42.488997,
      "longitude": -71.27168,
      "parentStationId": null,
      "vehicleType": 3,
      "platformCode": null
    },
    {
      "stopId": "16683",
      "name": "Broadway @ Mayfair St",
      "municipality": "Lynn",
      "latitude": 42.490891,
      "longitude": -70.958627,
      "parentStationId": null,
      "vehicleType": 3,
      "platformCode": null
    },
    {
      "stopId": "969",
      "name": "Cambridge St @ Dustin St",
      "municipality": "Boston",
      "latitude": 42.350864,
      "longitude": -71.145539,
      "parentStationId": null,
      "vehicleType": 3,
      "platformCode": null
    },
    {
      "stopId": "8679",
      "name": "Main St opp Longfellow Rd",
      "municipality": "Watertown",
      "latitude": 42.373561,
      "longitude": -71.207022,
      "parentStationId": null,
      "vehicleType": 3,
      "platformCode": null
    },
    {
      "stopId": "WML-0012-07",
      "name": "Back Bay",
      "municipality": "Boston",
      "latitude": 42.34759,
      "longitude": -71.075393,
      "parentStationId": "place-bbsta",
      "vehicleType": 2,
      "platformCode": "7"
    },
    {
      "stopId": "7200",
      "name": "Broadway opp Commonwealth Rd",
      "municipality": "Lynn",
      "latitude": 42.492939,
      "longitude": -70.958369,
      "parentStationId": null,
      "vehicleType": 3,
      "platformCode": null
    },
    {
      "stopId": "23841",
      "name": "Medford St @ Glenwood Rd",
      "municipality": "Somerville",
      "latitude": 42.394543,
      "longitude": -71.102259,
      "parentStationId": null,
      "vehicleType": 3,
      "platformCode": null
    },
    {
      "stopId": "3230",
      "name": "W Elm Ave @ Mason St",
      "municipality": "Quincy",
      "latitude": 42.274126,
      "longitude": -71.012354,
      "parentStationId": null,
      "vehicleType": 3,
      "platformCode": null
    },
    {
      "stopId": "7424",
      "name": "Lincoln Ave opp Laurel St",
      "municipality": "Saugus",
      "latitude": 42.444866,
      "longitude": -71.012307,
      "parentStationId": null,
      "vehicleType": 3,
      "platformCode": null
    },
    {
      "stopId": "5851",
      "name": "Bennington St @ Putnam St",
      "municipality": "Boston",
      "latitude": 42.377566,
      "longitude": -71.031805,
      "parentStationId": null,
      "vehicleType": 3,
      "platformCode": null
    },
    {
      "stopId": "7353",
      "name": "Lynnfield St @ Verdmont Ave",
      "municipality": "Lynn",
      "latitude": 42.492835,
      "longitude": -70.971867,
      "parentStationId": null,
      "vehicleType": 3,
      "platformCode": null
    },
    {
      "stopId": "5783",
      "name": "Beach St opp Nahant Ave",
      "municipality": "Revere",
      "latitude": 42.408817,
      "longitude": -70.99548,
      "parentStationId": null,
      "vehicleType": 3,
      "platformCode": null
    },
    {
      "stopId": "2612",
      "name": "Somerville Ave @ Stone Ave",
      "municipality": "Somerville",
      "latitude": 42.379547,
      "longitude": -71.095164,
      "parentStationId": null,
      "vehicleType": 3,
      "platformCode": null
    },
    {
      "stopId": "12636",
      "name": "Broadway opp Clarendon Hill Busway",
      "municipality": "Somerville",
      "latitude": 42.406461,
      "longitude": -71.132577,
      "parentStationId": null,
      "vehicleType": 3,
      "platformCode": null
    },
    {
      "stopId": "4249",
      "name": "S Main St @ Maple St",
      "municipality": "Randolph",
      "latitude": 42.1594,
      "longitude": -71.042923,
      "parentStationId": null,
      "vehicleType": 3,
      "platformCode": null
    },
    {
      "stopId": "922",
      "name": "Cambridge St opp Dustin St",
      "municipality": "Boston",
      "latitude": 42.350692,
      "longitude": -71.145688,
      "parentStationId": null,
      "vehicleType": 3,
      "platformCode": null
    },
    {
      "stopId": "3490",
      "name": "Beale St @ Summit Ave",
      "municipality": "Quincy",
      "latitude": 42.25954,
      "longitude": -71.030774,
      "parentStationId": null,
      "vehicleType": 3,
      "platformCode": null
    },
    {
      "stopId": "178",
      "name": "Saint James Ave @ Dartmouth St",
      "municipality": "Boston",
      "latitude": 42.349505,
      "longitude": -71.076639,
      "parentStationId": null,
      "vehicleType": 3,
      "platformCode": null
    },
    {
      "stopId": "5397",
      "name": "Main St @ Floyd St",
      "municipality": "Everett",
      "latitude": 42.413477,
      "longitude": -71.063608,
      "parentStationId": null,
      "vehicleType": 3,
      "platformCode": null
    },
    {
      "stopId": "290",
      "name": "W 6th St @ D St",
      "municipality": "Boston",
      "latitude": 42.336832,
      "longitude": -71.053007,
      "parentStationId": null,
      "vehicleType": 3,
      "platformCode": null
    },
    {
      "stopId": "6171",
      "name": "Opp 352 Lafayette St",
      "municipality": "Salem",
      "latitude": 42.5055,
      "longitude": -70.890697,
      "parentStationId": null,
      "vehicleType": 3,
      "platformCode": null
    },
    {
      "stopId": "1929",
      "name": "Ipswich St opp Lansdowne St",
      "municipality": "Boston",
      "latitude": 42.347221,
      "longitude": -71.094218,
      "parentStationId": null,
      "vehicleType": 3,
      "platformCode": null
    },
    {
      "stopId": "2493",
      "name": "Service Road West @ Watertown St",
      "municipality": "Lexington",
      "latitude": 42.418686,
      "longitude": -71.204882,
      "parentStationId": null,
      "vehicleType": 3,
      "platformCode": null
    },
    {
      "stopId": "6106",
      "name": "Lafayette St @ Cedar St",
      "municipality": "Salem",
      "latitude": 42.515261,
      "longitude": -70.8927,
      "parentStationId": null,
      "vehicleType": 3,
      "platformCode": null
    },
    {
      "stopId": "3351",
      "name": "Robertson St @ Connell St",
      "municipality": "Quincy",
      "latitude": 42.253016,
      "longitude": -71.03517,
      "parentStationId": null,
      "vehicleType": 3,
      "platformCode": null
    },
    {
      "stopId": "1535",
      "name": "Boylston St @ Chestnut Hill Ave",
      "municipality": "Brookline",
      "latitude": 42.326526,
      "longitude": -71.143465,
      "parentStationId": null,
      "vehicleType": 3,
      "platformCode": null
    },
    {
      "stopId": "7340",
      "name": "Lynnfield St opp Lookout Terr",
      "municipality": "Lynn",
      "latitude": 42.510149,
      "longitude": -70.989516,
      "parentStationId": null,
      "vehicleType": 3,
      "platformCode": null
    },
    {
      "stopId": "6605",
      "name": "Nahant St @ Tudor St",
      "municipality": "Lynn",
      "latitude": 42.459213,
      "longitude": -70.935115,
      "parentStationId": null,
      "vehicleType": 3,
      "platformCode": null
    },
    {
      "stopId": "93618",
      "name": "710 East St opp Kendall St",
      "municipality": "Walpole",
      "latitude": 42.147256,
      "longitude": -71.240311,
      "parentStationId": null,
      "vehicleType": 3,
      "platformCode": null
    },
    {
      "stopId": "8500",
      "name": "200 Parker St opp Stearns St",
      "municipality": "Newton",
      "latitude": 42.320874,
      "longitude": -71.194147,
      "parentStationId": null,
      "vehicleType": 3,
      "platformCode": null
    },
    {
      "stopId": "4328",
      "name": "Adams St opp White St",
      "municipality": "Quincy",
      "latitude": 42.255038,
      "longitude": -71.029611,
      "parentStationId": null,
      "vehicleType": 3,
      "platformCode": null
    },
    {
      "stopId": "2801",
      "name": "Metropolitan Ave @ Kittredge St",
      "municipality": "Boston",
      "latitude": 42.280149,
      "longitude": -71.131686,
      "parentStationId": null,
      "vehicleType": 3,
      "platformCode": null
    },
    {
      "stopId": "4523",
      "name": "Western Ave @ Walden St",
      "municipality": "Lynn",
      "latitude": 42.460699,
      "longitude": -70.967777,
      "parentStationId": null,
      "vehicleType": 3,
      "platformCode": null
    },
    {
      "stopId": "3175",
      "name": "Harvard St @ Holbrook Rd",
      "municipality": "Quincy",
      "latitude": 42.267489,
      "longitude": -71.03657,
      "parentStationId": null,
      "vehicleType": 3,
      "platformCode": null
    },
    {
      "stopId": "7836",
      "name": "180 Lexington St",
      "municipality": "Newton",
      "latitude": 42.354866,
      "longitude": -71.242884,
      "parentStationId": null,
      "vehicleType": 3,
      "platformCode": null
    },
    {
      "stopId": "1811",
      "name": "Brookline St @ Granite St",
      "municipality": "Cambridge",
      "latitude": 42.355374,
      "longitude": -71.109987,
      "parentStationId": null,
      "vehicleType": 3,
      "platformCode": null
    },
    {
      "stopId": "10015",
      "name": "Harrison Ave @ E Newton St",
      "municipality": "Boston",
      "latitude": 42.337402,
      "longitude": -71.072162,
      "parentStationId": null,
      "vehicleType": 3,
      "platformCode": null
    },
    {
      "stopId": "632",
      "name": "Washington St @ Cornell St",
      "municipality": "Boston",
      "latitude": 42.279437,
      "longitude": -71.135573,
      "parentStationId": null,
      "vehicleType": 3,
      "platformCode": null
    },
    {
      "stopId": "42876",
      "name": "Mystic Ave @ Plaza Entrance - Home Depot",
      "municipality": "Somerville",
      "latitude": 42.388869,
      "longitude": -71.080039,
      "parentStationId": null,
      "vehicleType": 3,
      "platformCode": null
    },
    {
      "stopId": "7625",
      "name": "Washington St @ Chestnut St",
      "municipality": "Newton",
      "latitude": 42.349257,
      "longitude": -71.225082,
      "parentStationId": null,
      "vehicleType": 3,
      "platformCode": null
    },
    {
      "stopId": "214",
      "name": "Seaport Blvd @ Pier 4 Blvd",
      "municipality": "Boston",
      "latitude": 42.351012,
      "longitude": -71.043647,
      "parentStationId": null,
      "vehicleType": 3,
      "platformCode": null
    },
    {
      "stopId": "3710",
      "name": "Washington St @ Prospect St",
      "municipality": "Weymouth",
      "latitude": 42.218813,
      "longitude": -70.967001,
      "parentStationId": null,
      "vehicleType": 3,
      "platformCode": null
    },
    {
      "stopId": "1755",
      "name": "Heath St @ Wensley St",
      "municipality": "Boston",
      "latitude": 42.326453,
      "longitude": -71.100404,
      "parentStationId": null,
      "vehicleType": 3,
      "platformCode": null
    },
    {
      "stopId": "8518",
      "name": "Centre St @ Newtonville Ave",
      "municipality": "Newton",
      "latitude": 42.351591,
      "longitude": -71.186111,
      "parentStationId": null,
      "vehicleType": 3,
      "platformCode": null
    },
    {
      "stopId": "6603",
      "name": "Nahant St @ W Baltimore St",
      "municipality": "Lynn",
      "latitude": 42.461609,
      "longitude": -70.937398,
      "parentStationId": null,
      "vehicleType": 3,
      "platformCode": null
    },
    {
      "stopId": "3463",
      "name": "Adams St opp Brook Rd",
      "municipality": "Milton",
      "latitude": 42.2594,
      "longitude": -71.044501,
      "parentStationId": null,
      "vehicleType": 3,
      "platformCode": null
    },
    {
      "stopId": "8970",
      "name": "River St opp Neponset Valley Pkwy",
      "municipality": "Boston",
      "latitude": 42.244718,
      "longitude": -71.137011,
      "parentStationId": null,
      "vehicleType": 3,
      "platformCode": null
    },
    {
      "stopId": "2774",
      "name": "Washington St @ Medford St",
      "municipality": "Somerville",
      "latitude": 42.379792,
      "longitude": -71.089974,
      "parentStationId": null,
      "vehicleType": 3,
      "platformCode": null
    },
    {
      "stopId": "4307",
      "name": "Randolph Ave @ Hilltop St",
      "municipality": "Milton",
      "latitude": 42.231815,
      "longitude": -71.070723,
      "parentStationId": null,
      "vehicleType": 3,
      "platformCode": null
    },
    {
      "stopId": "1698",
      "name": "Cambridge St @ Skilton Ln",
      "municipality": "Burlington",
      "latitude": 42.51248,
      "longitude": -71.20203,
      "parentStationId": null,
      "vehicleType": 3,
      "platformCode": null
    },
    {
      "stopId": "7386",
      "name": "Boston St @ Hamilton St",
      "municipality": "Lynn",
      "latitude": 42.460465,
      "longitude": -70.98878,
      "parentStationId": null,
      "vehicleType": 3,
      "platformCode": null
    },
    {
      "stopId": "43011",
      "name": "N Main St @ Russ St",
      "municipality": "Randolph",
      "latitude": 42.201087,
      "longitude": -71.06251,
      "parentStationId": null,
      "vehicleType": 3,
      "platformCode": null
    },
    {
      "stopId": "6408",
      "name": "Washington St @ Woodglen Rd",
      "municipality": "Boston",
      "latitude": 42.244739,
      "longitude": -71.122396,
      "parentStationId": null,
      "vehicleType": 3,
      "platformCode": null
    },
    {
      "stopId": "2737",
      "name": "Broadway @ Pearson Rd",
      "municipality": "Somerville",
      "latitude": 42.400501,
      "longitude": -71.113803,
      "parentStationId": null,
      "vehicleType": 3,
      "platformCode": null
    },
    {
      "stopId": "3979",
      "name": "S Franklin St @ Laurel Pk",
      "municipality": "Holbrook",
      "latitude": 42.134006,
      "longitude": -71.00752,
      "parentStationId": null,
      "vehicleType": 3,
      "platformCode": null
    },
    {
      "stopId": "70129",
      "name": "Griggs Street",
      "municipality": "Boston",
      "latitude": 42.348919,
      "longitude": -71.134305,
      "parentStationId": "place-grigg",
      "vehicleType": 0,
      "platformCode": null
    },
    {
      "stopId": "4310",
      "name": "Randolph Ave opp Hallen Ave",
      "municipality": "Milton",
      "latitude": 42.238452,
      "longitude": -71.069448,
      "parentStationId": null,
      "vehicleType": 3,
      "platformCode": null
    },
    {
      "stopId": "7337",
      "name": "Lynnfield St @ Tuscan Rd",
      "municipality": "Lynn",
      "latitude": 42.50594,
      "longitude": -70.982749,
      "parentStationId": null,
      "vehicleType": 3,
      "platformCode": null
    },
    {
      "stopId": "1147",
      "name": "Dudley St @ Guild Row",
      "municipality": "Boston",
      "latitude": 42.328969,
      "longitude": -71.086206,
      "parentStationId": null,
      "vehicleType": 3,
      "platformCode": null
    },
    {
      "stopId": "8462",
      "name": "Loomis St @ Hartford St",
      "municipality": "Bedford",
      "latitude": 42.486395,
      "longitude": -71.277032,
      "parentStationId": null,
      "vehicleType": 3,
      "platformCode": null
    },
    {
      "stopId": "3482",
      "name": "Adams St @ Fontbonne Academy",
      "municipality": "Milton",
      "latitude": 42.261806,
      "longitude": -71.059033,
      "parentStationId": null,
      "vehicleType": 3,
      "platformCode": null
    },
    {
      "stopId": "2580",
      "name": "Holland St @ Jay St",
      "municipality": "Somerville",
      "latitude": 42.399341,
      "longitude": -71.124909,
      "parentStationId": null,
      "vehicleType": 3,
      "platformCode": null
    },
    {
      "stopId": "4470",
      "name": "Highland Ave @ 400 Highland Place",
      "municipality": "Salem",
      "latitude": 42.49614,
      "longitude": -70.932565,
      "parentStationId": null,
      "vehicleType": 3,
      "platformCode": null
    },
    {
      "stopId": "520",
      "name": "Arborway @ Courthouse",
      "municipality": "Boston",
      "latitude": 42.30135,
      "longitude": -71.109364,
      "parentStationId": null,
      "vehicleType": 3,
      "platformCode": null
    },
    {
      "stopId": "3669",
      "name": "North St @ Church St",
      "municipality": "Weymouth",
      "latitude": 42.229923,
      "longitude": -70.943969,
      "parentStationId": null,
      "vehicleType": 3,
      "platformCode": null
    },
    {
      "stopId": "47618",
      "name": "Washington St opp Rockhill St",
      "municipality": "Norwood",
      "latitude": 42.168591,
      "longitude": -71.211237,
      "parentStationId": null,
      "vehicleType": 3,
      "platformCode": null
    },
    {
      "stopId": "70025",
      "name": "Haymarket",
      "municipality": "Boston",
      "latitude": 42.363021,
      "longitude": -71.05829,
      "parentStationId": "place-haecl",
      "vehicleType": 1,
      "platformCode": null
    },
    {
      "stopId": "1026",
      "name": "Chestnut Hill Ave @ Veronica Smith Ctr",
      "municipality": "Boston",
      "latitude": 42.348296,
      "longitude": -71.153761,
      "parentStationId": null,
      "vehicleType": 3,
      "platformCode": null
    },
    {
      "stopId": "7476",
      "name": "59 Main St",
      "municipality": "Saugus",
      "latitude": 42.464586,
      "longitude": -71.014678,
      "parentStationId": null,
      "vehicleType": 3,
      "platformCode": null
    },
    {
      "stopId": "3630",
      "name": "Washington St @ Southern Artery",
      "municipality": "Quincy",
      "latitude": 42.248184,
      "longitude": -70.982677,
      "parentStationId": null,
      "vehicleType": 3,
      "platformCode": null
    },
    {
      "stopId": "807",
      "name": "Centre St @ Corey St",
      "municipality": "Boston",
      "latitude": 42.286119,
      "longitude": -71.155081,
      "parentStationId": null,
      "vehicleType": 3,
      "platformCode": null
    },
    {
      "stopId": "8271",
      "name": "294 Mystic St opp Beverly Rd",
      "municipality": "Arlington",
      "latitude": 42.426582,
      "longitude": -71.152233,
      "parentStationId": null,
      "vehicleType": 3,
      "platformCode": null
    },
    {
      "stopId": "70112",
      "name": "Chestnut Hill Avenue",
      "municipality": "Boston",
      "latitude": 42.33873,
      "longitude": -71.152526,
      "parentStationId": "place-chill",
      "vehicleType": 0,
      "platformCode": null
    },
    {
      "stopId": "85566",
      "name": "Baker St @ Amesbury St",
      "municipality": "Boston",
      "latitude": 42.28175,
      "longitude": -71.168981,
      "parentStationId": null,
      "vehicleType": 3,
      "platformCode": null
    },
    {
      "stopId": "45211",
      "name": "Western Ave opp Ida St",
      "municipality": "Lynn",
      "latitude": 42.456007,
      "longitude": -70.973048,
      "parentStationId": null,
      "vehicleType": 3,
      "platformCode": null
    },
    {
      "stopId": "3055",
      "name": "Hancock St @ Albion Rd",
      "municipality": "Quincy",
      "latitude": 42.271677,
      "longitude": -71.022563,
      "parentStationId": null,
      "vehicleType": 3,
      "platformCode": null
    },
    {
      "stopId": "3299",
      "name": "Palmer St opp Brockton Ave",
      "municipality": "Quincy",
      "latitude": 42.257293,
      "longitude": -70.970922,
      "parentStationId": null,
      "vehicleType": 3,
      "platformCode": null
    },
    {
      "stopId": "56567",
      "name": "1532 Hyde Park Ave opp Reservation Rd",
      "municipality": "Boston",
      "latitude": 42.246499,
      "longitude": -71.128529,
      "parentStationId": null,
      "vehicleType": 3,
      "platformCode": null
    },
    {
      "stopId": "3996",
      "name": "S Franklin St @ Diman Ave",
      "municipality": "Holbrook",
      "latitude": 42.128749,
      "longitude": -71.008903,
      "parentStationId": null,
      "vehicleType": 3,
      "platformCode": null
    },
    {
      "stopId": "1777",
      "name": "Brookline Ave @ Pilgrim Rd",
      "municipality": "Boston",
      "latitude": 42.342351,
      "longitude": -71.103831,
      "parentStationId": null,
      "vehicleType": 3,
      "platformCode": null
    },
    {
      "stopId": "1115",
      "name": "Cambridge St @ Seattle St",
      "municipality": "Boston",
      "latitude": 42.358658,
      "longitude": -71.123967,
      "parentStationId": null,
      "vehicleType": 3,
      "platformCode": null
    },
    {
      "stopId": "2885",
      "name": "Mystic Ave opp Billings Ave",
      "municipality": "Medford",
      "latitude": 42.408486,
      "longitude": -71.104066,
      "parentStationId": null,
      "vehicleType": 3,
      "platformCode": null
    },
    {
      "stopId": "7210",
      "name": "Euclid Ave @ Verona St",
      "municipality": "Lynn",
      "latitude": 42.485355,
      "longitude": -70.950863,
      "parentStationId": null,
      "vehicleType": 3,
      "platformCode": null
    },
    {
      "stopId": "4537",
      "name": "Western Ave @ Waitt Ave",
      "municipality": "Lynn",
      "latitude": 42.48415,
      "longitude": -70.94221,
      "parentStationId": null,
      "vehicleType": 3,
      "platformCode": null
    },
    {
      "stopId": "14121",
      "name": "Alewife",
      "municipality": "Cambridge",
      "latitude": 42.395622,
      "longitude": -71.141438,
      "parentStationId": "place-alfcl",
      "vehicleType": 3,
      "platformCode": "B3"
    },
    {
      "stopId": "7813",
      "name": "Crescent St opp Spruce St",
      "municipality": "Waltham",
      "latitude": 42.370855,
      "longitude": -71.2399,
      "parentStationId": null,
      "vehicleType": 3,
      "platformCode": null
    },
    {
      "stopId": "57618",
      "name": "Washington St @ Norwood Hospital",
      "municipality": "Norwood",
      "latitude": 42.189515,
      "longitude": -71.202573,
      "parentStationId": null,
      "vehicleType": 3,
      "platformCode": null
    },
    {
      "stopId": "7890",
      "name": "Great Rd opp Brooksbie Rd",
      "municipality": "Bedford",
      "latitude": 42.488167,
      "longitude": -71.268268,
      "parentStationId": null,
      "vehicleType": 3,
      "platformCode": null
    },
    {
      "stopId": "926",
      "name": "Brighton Ave @ Cambridge St",
      "municipality": "Boston",
      "latitude": 42.353347,
      "longitude": -71.136687,
      "parentStationId": null,
      "vehicleType": 3,
      "platformCode": null
    },
    {
      "stopId": "212",
      "name": "Summer St @ D St",
      "municipality": "Boston",
      "latitude": 42.345781,
      "longitude": -71.04118,
      "parentStationId": null,
      "vehicleType": 3,
      "platformCode": null
    },
    {
      "stopId": "636",
      "name": "Washington St @ Cummins Hwy",
      "municipality": "Boston",
      "latitude": 42.28666,
      "longitude": -71.127791,
      "parentStationId": null,
      "vehicleType": 3,
      "platformCode": null
    },
    {
      "stopId": "8993",
      "name": "Brookline Ave opp Newbury St",
      "municipality": "Boston",
      "latitude": 42.348062,
      "longitude": -71.097773,
      "parentStationId": null,
      "vehicleType": 3,
      "platformCode": null
    },
    {
      "stopId": "782",
      "name": "Centre St @ Bellevue St",
      "municipality": "Boston",
      "latitude": 42.283608,
      "longitude": -71.156948,
      "parentStationId": null,
      "vehicleType": 3,
      "platformCode": null
    },
    {
      "stopId": "NB-0109-B0",
      "name": "Hersey",
      "municipality": "Needham",
      "latitude": 42.276121,
      "longitude": -71.215341,
      "parentStationId": "place-NB-0109",
      "vehicleType": 3,
      "platformCode": null
    },
    {
      "stopId": "24619",
      "name": "Washington St @ Incinerator Rd",
      "municipality": "Dedham",
      "latitude": 42.253892,
      "longitude": -71.16643,
      "parentStationId": null,
      "vehicleType": 3,
      "platformCode": null
    },
    {
      "stopId": "5643",
      "name": "271 Chelsea St opp Luke Rd",
      "municipality": "Everett",
      "latitude": 42.402798,
      "longitude": -71.044177,
      "parentStationId": null,
      "vehicleType": 3,
      "platformCode": null
    },
    {
      "stopId": "1853",
      "name": "Weld St opp Wedgewood Rd",
      "municipality": "Boston",
      "latitude": 42.294255,
      "longitude": -71.136678,
      "parentStationId": null,
      "vehicleType": 3,
      "platformCode": null
    },
    {
      "stopId": "852",
      "name": "Vermont St @ Temple St",
      "municipality": "Boston",
      "latitude": 42.285412,
      "longitude": -71.168478,
      "parentStationId": null,
      "vehicleType": 3,
      "platformCode": null
    },
    {
      "stopId": "6569",
      "name": "Corporation Way",
      "municipality": "Medford",
      "latitude": 42.404686,
      "longitude": -71.075506,
      "parentStationId": null,
      "vehicleType": 3,
      "platformCode": null
    },
    {
      "stopId": "9142",
      "name": "Main St opp Mountain St",
      "municipality": "Woburn",
      "latitude": 42.51472,
      "longitude": -71.160818,
      "parentStationId": null,
      "vehicleType": 3,
      "platformCode": null
    },
    {
      "stopId": "6165",
      "name": "Loring Ave @ Grant Rd",
      "municipality": "Salem",
      "latitude": 42.495959,
      "longitude": -70.894994,
      "parentStationId": null,
      "vehicleType": 3,
      "platformCode": null
    },
    {
      "stopId": "4782",
      "name": "Humphrey St @ May St",
      "municipality": "Marblehead",
      "latitude": 42.483599,
      "longitude": -70.887888,
      "parentStationId": null,
      "vehicleType": 3,
      "platformCode": null
    },
    {
      "stopId": "8552",
      "name": "Sawmill Brook Pkwy @ Walsh Rd",
      "municipality": "Newton",
      "latitude": 42.289904,
      "longitude": -71.191003,
      "parentStationId": null,
      "vehicleType": 3,
      "platformCode": null
    },
    {
      "stopId": "7839",
      "name": "Rumford Ave @ Buttrick St",
      "municipality": "Waltham",
      "latitude": 42.359406,
      "longitude": -71.243538,
      "parentStationId": null,
      "vehicleType": 3,
      "platformCode": null
    },
    {
      "stopId": "70176",
      "name": "Beaconsfield",
      "municipality": "Brookline",
      "latitude": 42.335625,
      "longitude": -71.140112,
      "parentStationId": "place-bcnfd",
      "vehicleType": 0,
      "platformCode": null
    },
    {
      "stopId": "30203",
      "name": "Congress St @ Sudbury St",
      "municipality": "Boston",
      "latitude": 42.362175,
      "longitude": -71.058498,
      "parentStationId": null,
      "vehicleType": 3,
      "platformCode": null
    },
    {
      "stopId": "1438",
      "name": "Arsenal St @ Bond St",
      "municipality": "Watertown",
      "latitude": 42.362939,
      "longitude": -71.159401,
      "parentStationId": null,
      "vehicleType": 3,
      "platformCode": null
    },
    {
      "stopId": "5372",
      "name": "Centre St @ Main St",
      "municipality": "Malden",
      "latitude": 42.42515,
      "longitude": -71.067134,
      "parentStationId": null,
      "vehicleType": 3,
      "platformCode": null
    },
    {
      "stopId": "6462",
      "name": "Cummins Hwy @ Sherwood St",
      "municipality": "Boston",
      "latitude": 42.282871,
      "longitude": -71.123861,
      "parentStationId": null,
      "vehicleType": 3,
      "platformCode": null
    },
    {
      "stopId": "2745",
      "name": "Cross St @ Pearl St",
      "municipality": "Somerville",
      "latitude": 42.385796,
      "longitude": -71.087692,
      "parentStationId": null,
      "vehicleType": 3,
      "platformCode": null
    },
    {
      "stopId": "7131",
      "name": "Cabot St @ Federal St",
      "municipality": "Beverly",
      "latitude": 42.549149,
      "longitude": -70.878211,
      "parentStationId": null,
      "vehicleType": 3,
      "platformCode": null
    },
    {
      "stopId": "767",
      "name": "Centre St @ Linden Rd",
      "municipality": "Boston",
      "latitude": 42.266178,
      "longitude": -71.16286,
      "parentStationId": null,
      "vehicleType": 3,
      "platformCode": null
    },
    {
      "stopId": "70619",
      "name": "Washington St @ Dean Ave",
      "municipality": "Westwood",
      "latitude": 42.221195,
      "longitude": -71.187628,
      "parentStationId": null,
      "vehicleType": 3,
      "platformCode": null
    },
    {
      "stopId": "5822",
      "name": "Revere Beach Pkwy @ Woods Ave",
      "municipality": "Revere",
      "latitude": 42.402491,
      "longitude": -70.999702,
      "parentStationId": null,
      "vehicleType": 3,
      "platformCode": null
    },
    {
      "stopId": "6460",
      "name": "Cummins Hwy @ Rowe St",
      "municipality": "Boston",
      "latitude": 42.280681,
      "longitude": -71.120534,
      "parentStationId": null,
      "vehicleType": 3,
      "platformCode": null
    },
    {
      "stopId": "5587",
      "name": "60 Woodlawn Ave",
      "municipality": "Chelsea",
      "latitude": 42.413224,
      "longitude": -71.033033,
      "parentStationId": null,
      "vehicleType": 3,
      "platformCode": null
    },
    {
      "stopId": "6257",
      "name": "Malden St @ Derby Rd",
      "municipality": "Revere",
      "latitude": 42.423503,
      "longitude": -71.01749,
      "parentStationId": null,
      "vehicleType": 3,
      "platformCode": null
    },
    {
      "stopId": "1301",
      "name": "7 Winship St",
      "municipality": "Boston",
      "latitude": 42.348814,
      "longitude": -71.150755,
      "parentStationId": null,
      "vehicleType": 3,
      "platformCode": null
    },
    {
      "stopId": "NEC-2040-02",
      "name": "Mansfield",
      "municipality": "Mansfield",
      "latitude": 42.032787,
      "longitude": -71.219917,
      "parentStationId": "place-NEC-2040",
      "vehicleType": 2,
      "platformCode": "2"
    },
    {
      "stopId": "6175",
      "name": "Lafayette St @ Willow Ave",
      "municipality": "Salem",
      "latitude": 42.509572,
      "longitude": -70.89149,
      "parentStationId": null,
      "vehicleType": 3,
      "platformCode": null
    },
    {
      "stopId": "4235",
      "name": "S Main St @ Acorn Dr",
      "municipality": "Randolph",
      "latitude": 42.137689,
      "longitude": -71.04001,
      "parentStationId": null,
      "vehicleType": 3,
      "platformCode": null
    },
    {
      "stopId": "511",
      "name": "Washington St @ Gallivan Blvd",
      "municipality": "Boston",
      "latitude": 42.279234,
      "longitude": -71.069699,
      "parentStationId": null,
      "vehicleType": 3,
      "platformCode": null
    },
    {
      "stopId": "4316",
      "name": "Whitwell St @ Maywood Ave",
      "municipality": "Quincy",
      "latitude": 42.248975,
      "longitude": -71.009571,
      "parentStationId": null,
      "vehicleType": 3,
      "platformCode": null
    },
    {
      "stopId": "5104",
      "name": "Davis",
      "municipality": "Somerville",
      "latitude": 42.396646,
      "longitude": -71.121879,
      "parentStationId": "place-davis",
      "vehicleType": 3,
      "platformCode": null
    },
    {
      "stopId": "12323",
      "name": "Park Ave @ Oakland Ave",
      "municipality": "Arlington",
      "latitude": 42.417802,
      "longitude": -71.180683,
      "parentStationId": null,
      "vehicleType": 3,
      "platformCode": null
    },
    {
      "stopId": "13407",
      "name": "125 Granite St",
      "municipality": "Quincy",
      "latitude": 42.246089,
      "longitude": -71.006084,
      "parentStationId": null,
      "vehicleType": 3,
      "platformCode": null
    },
    {
      "stopId": "2804",
      "name": "Metropolitan Ave @ Highfield Rd",
      "municipality": "Boston",
      "latitude": 42.277545,
      "longitude": -71.127459,
      "parentStationId": null,
      "vehicleType": 3,
      "platformCode": null
    },
    {
      "stopId": "4615",
      "name": "Commonwealth Ave @ Endicott St",
      "municipality": "Danvers",
      "latitude": 42.548524,
      "longitude": -70.942572,
      "parentStationId": null,
      "vehicleType": 3,
      "platformCode": null
    },
    {
      "stopId": "39682",
      "name": "Elm St @ Drinkwater Ave",
      "municipality": "Braintree",
      "latitude": 42.226231,
      "longitude": -70.992946,
      "parentStationId": null,
      "vehicleType": 3,
      "platformCode": null
    },
    {
      "stopId": "22618",
      "name": "Washington St @ Fulton St",
      "municipality": "Norwood",
      "latitude": 42.203594,
      "longitude": -71.196657,
      "parentStationId": null,
      "vehicleType": 3,
      "platformCode": null
    },
    {
      "stopId": "7591",
      "name": "78 Main St",
      "municipality": "Saugus",
      "latitude": 42.464351,
      "longitude": -71.016384,
      "parentStationId": null,
      "vehicleType": 3,
      "platformCode": null
    },
    {
      "stopId": "5435",
      "name": "Lebanon St @ Orchard St",
      "municipality": "Malden",
      "latitude": 42.435046,
      "longitude": -71.045519,
      "parentStationId": null,
      "vehicleType": 3,
      "platformCode": null
    },
    {
      "stopId": "6392",
      "name": "Beacon St @ Fairmount Ave",
      "municipality": "Boston",
      "latitude": 42.252485,
      "longitude": -71.117976,
      "parentStationId": null,
      "vehicleType": 3,
      "platformCode": null
    },
    {
      "stopId": "SB-0150-06",
      "name": "Canton Junction",
      "municipality": "Canton",
      "latitude": 42.163115,
      "longitude": -71.153581,
      "parentStationId": "place-NEC-2139",
      "vehicleType": 2,
      "platformCode": "6"
    },
    {
      "stopId": "4066",
      "name": "327 North St",
      "municipality": "Randolph",
      "latitude": 42.172898,
      "longitude": -71.034781,
      "parentStationId": null,
      "vehicleType": 3,
      "platformCode": null
    },
    {
      "stopId": "289",
      "name": "W 6th St @ E St",
      "municipality": "Boston",
      "latitude": 42.335827,
      "longitude": -71.051409,
      "parentStationId": null,
      "vehicleType": 3,
      "platformCode": null
    },
    {
      "stopId": "2615",
      "name": "Washington St opp Parker St",
      "municipality": "Somerville",
      "latitude": 42.379408,
      "longitude": -71.100221,
      "parentStationId": null,
      "vehicleType": 3,
      "platformCode": null
    },
    {
      "stopId": "3195",
      "name": "Newport Ave @ Oakland Ave",
      "municipality": "Quincy",
      "latitude": 42.260512,
      "longitude": -71.014387,
      "parentStationId": null,
      "vehicleType": 3,
      "platformCode": null
    },
    {
      "stopId": "4793",
      "name": "Humphrey St @ Lafayette St",
      "municipality": "Marblehead",
      "latitude": 42.49383,
      "longitude": -70.870158,
      "parentStationId": null,
      "vehicleType": 3,
      "platformCode": null
    },
    {
      "stopId": "6744",
      "name": "Kings Hill Dr @ Newcastle St",
      "municipality": "Lynn",
      "latitude": 42.467855,
      "longitude": -70.987587,
      "parentStationId": null,
      "vehicleType": 3,
      "platformCode": null
    },
    {
      "stopId": "55600",
      "name": "Fields Corner Sta @ Geneva Ave",
      "municipality": "Boston",
      "latitude": 42.299024,
      "longitude": -71.063789,
      "parentStationId": null,
      "vehicleType": 3,
      "platformCode": null
    },
    {
      "stopId": "12652",
      "name": "Broadway @ Cleveland St",
      "municipality": "Arlington",
      "latitude": 42.408588,
      "longitude": -71.137313,
      "parentStationId": null,
      "vehicleType": 3,
      "platformCode": null
    },
    {
      "stopId": "8540",
      "name": "Dedham St opp Meadowbrook Rd",
      "municipality": "Newton",
      "latitude": 42.305185,
      "longitude": -71.193871,
      "parentStationId": null,
      "vehicleType": 3,
      "platformCode": null
    },
    {
      "stopId": "10013",
      "name": "Albany St @ E Dedham St",
      "municipality": "Boston",
      "latitude": 42.337556,
      "longitude": -71.067875,
      "parentStationId": null,
      "vehicleType": 3,
      "platformCode": null
    },
    {
      "stopId": "8274",
      "name": "144 Mystic St opp Rangely Rd",
      "municipality": "Arlington",
      "latitude": 42.420083,
      "longitude": -71.152743,
      "parentStationId": null,
      "vehicleType": 3,
      "platformCode": null
    },
    {
      "stopId": "5377",
      "name": "Eastern Ave @ Franklin St",
      "municipality": "Malden",
      "latitude": 42.426929,
      "longitude": -71.059522,
      "parentStationId": null,
      "vehicleType": 3,
      "platformCode": null
    },
    {
      "stopId": "1061",
      "name": "Western Ave @ Kinnaird St",
      "municipality": "Cambridge",
      "latitude": 42.364952,
      "longitude": -71.108901,
      "parentStationId": null,
      "vehicleType": 3,
      "platformCode": null
    },
    {
      "stopId": "ER-0227-B1",
      "name": "Hamilton/Wenham - Bay Rd @ Railroad Ave",
      "municipality": "Hamilton",
      "latitude": 42.610426,
      "longitude": -70.874816,
      "parentStationId": "place-ER-0227",
      "vehicleType": 3,
      "platformCode": null
    },
    {
      "stopId": "ER-0208-B0",
      "name": "North Beverly - Enon St @ Dodge St",
      "municipality": "Beverly",
      "latitude": 42.583313,
      "longitude": -70.88429,
      "parentStationId": "place-ER-0208",
      "vehicleType": 3,
      "platformCode": null
    },
    {
      "stopId": "9038",
      "name": "Middlesex Ave @ First St",
      "municipality": "Medford",
      "latitude": 42.411411,
      "longitude": -71.079279,
      "parentStationId": null,
      "vehicleType": 3,
      "platformCode": null
    },
    {
      "stopId": "7445",
      "name": "Boston St @ Browns Ave",
      "municipality": "Lynn",
      "latitude": 42.461917,
      "longitude": -70.98615,
      "parentStationId": null,
      "vehicleType": 3,
      "platformCode": null
    },
    {
      "stopId": "4870",
      "name": "Salem St @ Sunbeam Ln",
      "municipality": "Swampscott",
      "latitude": 42.483844,
      "longitude": -70.89883,
      "parentStationId": null,
      "vehicleType": 3,
      "platformCode": null
    },
    {
      "stopId": "4930",
      "name": "Central St @ Community Life Center",
      "municipality": "Peabody",
      "latitude": 42.531556,
      "longitude": -70.927303,
      "parentStationId": null,
      "vehicleType": 3,
      "platformCode": null
    },
    {
      "stopId": "8341",
      "name": "Puritan Mall Service Rd",
      "municipality": "Boston",
      "latitude": 42.296877,
      "longitude": -71.049066,
      "parentStationId": null,
      "vehicleType": 3,
      "platformCode": null
    },
    {
      "stopId": "1924",
      "name": "Kilmarnock St @ Peterborough St",
      "municipality": "Boston",
      "latitude": 42.343165,
      "longitude": -71.099663,
      "parentStationId": null,
      "vehicleType": 3,
      "platformCode": null
    },
    {
      "stopId": "8942",
      "name": "Reservation Rd @ River St",
      "municipality": "Boston",
      "latitude": 42.25236,
      "longitude": -71.131005,
      "parentStationId": null,
      "vehicleType": 3,
      "platformCode": null
    },
    {
      "stopId": "94618",
      "name": "East St @ Eastover Rd",
      "municipality": "Walpole",
      "latitude": 42.147177,
      "longitude": -71.243081,
      "parentStationId": null,
      "vehicleType": 3,
      "platformCode": null
    },
    {
      "stopId": "128",
      "name": "Massachusetts Ave opp Magazine St",
      "municipality": "Boston",
      "latitude": 42.327984,
      "longitude": -71.067744,
      "parentStationId": null,
      "vehicleType": 3,
      "platformCode": null
    },
    {
      "stopId": "70078",
      "name": "Downtown Crossing",
      "municipality": "Boston",
      "latitude": 42.355518,
      "longitude": -71.060225,
      "parentStationId": "place-dwnxg",
      "vehicleType": 1,
      "platformCode": null
    },
    {
      "stopId": "4563",
      "name": "Washington St @ Church St",
      "municipality": "Salem",
      "latitude": 42.522575,
      "longitude": -70.895725,
      "parentStationId": null,
      "vehicleType": 3,
      "platformCode": null
    },
    {
      "stopId": "3245",
      "name": "405 Sea St",
      "municipality": "Quincy",
      "latitude": 42.262106,
      "longitude": -70.983568,
      "parentStationId": null,
      "vehicleType": 3,
      "platformCode": null
    },
    {
      "stopId": "7150",
      "name": "Hawthorne Blvd @ Derby St",
      "municipality": "Salem",
      "latitude": 42.520766,
      "longitude": -70.890195,
      "parentStationId": null,
      "vehicleType": 3,
      "platformCode": null
    },
    {
      "stopId": "3111",
      "name": "Wilson Ave opp Mascoma St",
      "municipality": "Quincy",
      "latitude": 42.267761,
      "longitude": -71.031124,
      "parentStationId": null,
      "vehicleType": 3,
      "platformCode": null
    },
    {
      "stopId": "WR-0085-B0",
      "name": "Greenwood - Main St @ Walton Pl",
      "municipality": "Wakefield",
      "latitude": 42.484284,
      "longitude": -71.067731,
      "parentStationId": "place-WR-0085",
      "vehicleType": 3,
      "platformCode": null
    },
    {
      "stopId": "5563",
      "name": "Santilli Circle",
      "municipality": "Everett",
      "latitude": 42.40268,
      "longitude": -71.06754,
      "parentStationId": null,
      "vehicleType": 3,
      "platformCode": null
    },
    {
      "stopId": "6230",
      "name": "Central St @ Jasper St",
      "municipality": "Saugus",
      "latitude": 42.462849,
      "longitude": -71.009496,
      "parentStationId": null,
      "vehicleType": 3,
      "platformCode": null
    },
    {
      "stopId": "4731",
      "name": "Opp 40 Burbank Hwy",
      "municipality": "Revere",
      "latitude": 42.397215,
      "longitude": -71.008321,
      "parentStationId": null,
      "vehicleType": 3,
      "platformCode": null
    },
    {
      "stopId": "1040",
      "name": "Market St @ Guest St",
      "municipality": "Boston",
      "latitude": 42.357313,
      "longitude": -71.148285,
      "parentStationId": null,
      "vehicleType": 3,
      "platformCode": null
    },
    {
      "stopId": "2274",
      "name": "Massachusetts Ave @ Gladstone St",
      "municipality": "Cambridge",
      "latitude": 42.400762,
      "longitude": -71.13535,
      "parentStationId": null,
      "vehicleType": 3,
      "platformCode": null
    },
    {
      "stopId": "4227",
      "name": "625 S Main St opp Frederickson Dr",
      "municipality": "Randolph",
      "latitude": 42.14215,
      "longitude": -71.040927,
      "parentStationId": null,
      "vehicleType": 3,
      "platformCode": null
    },
    {
      "stopId": "477",
      "name": "Washington St @ Vassar St",
      "municipality": "Boston",
      "latitude": 42.300873,
      "longitude": -71.076116,
      "parentStationId": null,
      "vehicleType": 3,
      "platformCode": null
    },
    {
      "stopId": "3141",
      "name": "E Squantum St @ Essex St",
      "municipality": "Quincy",
      "latitude": 42.296929,
      "longitude": -71.017453,
      "parentStationId": null,
      "vehicleType": 3,
      "platformCode": null
    },
    {
      "stopId": "5927",
      "name": "Upham St @ Bellevue Ave",
      "municipality": "Melrose",
      "latitude": 42.45742,
      "longitude": -71.058591,
      "parentStationId": null,
      "vehicleType": 3,
      "platformCode": null
    },
    {
      "stopId": "9146",
      "name": "578 Winthrop St",
      "municipality": "Medford",
      "latitude": 42.429733,
      "longitude": -71.129796,
      "parentStationId": null,
      "vehicleType": 3,
      "platformCode": null
    },
    {
      "stopId": "27618",
      "name": "Washington St @ Guild St",
      "municipality": "Norwood",
      "latitude": 42.191284,
      "longitude": -71.202528,
      "parentStationId": null,
      "vehicleType": 3,
      "platformCode": null
    },
    {
      "stopId": "3604",
      "name": "Lincoln St @ USS Amesbury Dr",
      "municipality": "Hingham",
      "latitude": 42.249231,
      "longitude": -70.914667,
      "parentStationId": null,
      "vehicleType": 3,
      "platformCode": null
    },
    {
      "stopId": "1508",
      "name": "Hancock St @ Bowdoin St",
      "municipality": "Boston",
      "latitude": 42.311094,
      "longitude": -71.062621,
      "parentStationId": null,
      "vehicleType": 3,
      "platformCode": null
    },
    {
      "stopId": "2125",
      "name": "Belmont St @ Oakley Rd",
      "municipality": "Belmont",
      "latitude": 42.37782,
      "longitude": -71.169553,
      "parentStationId": null,
      "vehicleType": 3,
      "platformCode": null
    },
    {
      "stopId": "4907",
      "name": "Humphrey St @ Millett Rd",
      "municipality": "Swampscott",
      "latitude": 42.467937,
      "longitude": -70.903688,
      "parentStationId": null,
      "vehicleType": 3,
      "platformCode": null
    },
    {
      "stopId": "4562",
      "name": "Washington St @ New Derby St",
      "municipality": "Salem",
      "latitude": 42.519945,
      "longitude": -70.89534,
      "parentStationId": null,
      "vehicleType": 3,
      "platformCode": null
    },
    {
      "stopId": "2937",
      "name": "Boston St @ Mayhew St",
      "municipality": "Boston",
      "latitude": 42.321914,
      "longitude": -71.061132,
      "parentStationId": null,
      "vehicleType": 3,
      "platformCode": null
    },
    {
      "stopId": "70150",
      "name": "Kenmore",
      "municipality": "Boston",
      "latitude": 42.348949,
      "longitude": -71.095169,
      "parentStationId": "place-kencl",
      "vehicleType": 0,
      "platformCode": null
    },
    {
      "stopId": "4547",
      "name": "Highland Ave @ Greenledge St",
      "municipality": "Salem",
      "latitude": 42.50134,
      "longitude": -70.925538,
      "parentStationId": null,
      "vehicleType": 3,
      "platformCode": null
    },
    {
      "stopId": "5482",
      "name": "990 Broadway opp Grover St",
      "municipality": "Malden",
      "latitude": 42.423469,
      "longitude": -71.042806,
      "parentStationId": null,
      "vehicleType": 3,
      "platformCode": null
    },
    {
      "stopId": "70202",
      "name": "Government Center",
      "municipality": "Boston",
      "latitude": 42.359705,
      "longitude": -71.059215,
      "parentStationId": "place-gover",
      "vehicleType": 0,
      "platformCode": null
    },
    {
      "stopId": "5426",
      "name": "Bowdoin St @ Willow St",
      "municipality": "Malden",
      "latitude": 42.428147,
      "longitude": -71.051517,
      "parentStationId": null,
      "vehicleType": 3,
      "platformCode": null
    },
    {
      "stopId": "42820",
      "name": "Neponset Valley Pkwy @ Westinghouse Plaza",
      "municipality": "Boston",
      "latitude": 42.243524,
      "longitude": -71.131891,
      "parentStationId": null,
      "vehicleType": 3,
      "platformCode": null
    },
    {
      "stopId": "17401",
      "name": "Seaver St opp Elm Hill Ave",
      "municipality": "Boston",
      "latitude": 42.307515,
      "longitude": -71.089263,
      "parentStationId": null,
      "vehicleType": 3,
      "platformCode": null
    },
    {
      "stopId": "13245",
      "name": "Sea St @ Moffat Rd",
      "municipality": "Quincy",
      "latitude": 42.262164,
      "longitude": -70.985594,
      "parentStationId": null,
      "vehicleType": 3,
      "platformCode": null
    },
    {
      "stopId": "5299",
      "name": "Main St @ Albion St",
      "municipality": "Medford",
      "latitude": 42.400288,
      "longitude": -71.104027,
      "parentStationId": null,
      "vehicleType": 3,
      "platformCode": null
    },
    {
      "stopId": "6631",
      "name": "Willow Rd @ Summer St",
      "municipality": "Nahant",
      "latitude": 42.423108,
      "longitude": -70.917785,
      "parentStationId": null,
      "vehicleType": 3,
      "platformCode": null
    },
    {
      "stopId": "57121",
      "name": "Broadway @ Fernwood Ave",
      "municipality": "Revere",
      "latitude": 42.410862,
      "longitude": -71.011956,
      "parentStationId": null,
      "vehicleType": 3,
      "platformCode": null
    },
    {
      "stopId": "8164",
      "name": "Walnut St @ Clyde St",
      "municipality": "Newton",
      "latitude": 42.345783,
      "longitude": -71.206015,
      "parentStationId": null,
      "vehicleType": 3,
      "platformCode": null
    },
    {
      "stopId": "4094",
      "name": "West St @ Trask Ave",
      "municipality": "Quincy",
      "latitude": 42.237471,
      "longitude": -71.025834,
      "parentStationId": null,
      "vehicleType": 3,
      "platformCode": null
    },
    {
      "stopId": "2397",
      "name": "Pearl St @ Bradley St",
      "municipality": "Somerville",
      "latitude": 42.38791,
      "longitude": -71.094908,
      "parentStationId": null,
      "vehicleType": 3,
      "platformCode": null
    },
    {
      "stopId": "3165",
      "name": "E Squantum St @ Newbury Ave",
      "municipality": "Quincy",
      "latitude": 42.278346,
      "longitude": -71.027138,
      "parentStationId": null,
      "vehicleType": 3,
      "platformCode": null
    },
    {
      "stopId": "3261",
      "name": "Sea St @ Bell St",
      "municipality": "Quincy",
      "latitude": 42.269214,
      "longitude": -70.952281,
      "parentStationId": null,
      "vehicleType": 3,
      "platformCode": null
    },
    {
      "stopId": "3215",
      "name": "Billings Rd opp Tyler St",
      "municipality": "Quincy",
      "latitude": 42.275429,
      "longitude": -71.022106,
      "parentStationId": null,
      "vehicleType": 3,
      "platformCode": null
    },
    {
      "stopId": "4942",
      "name": "Lynn St @ Brown St",
      "municipality": "Peabody",
      "latitude": 42.51261,
      "longitude": -70.946981,
      "parentStationId": null,
      "vehicleType": 3,
      "platformCode": null
    },
    {
      "stopId": "2894",
      "name": "Mystic Ave @ Bonner Ave",
      "municipality": "Medford",
      "latitude": 42.405134,
      "longitude": -71.101203,
      "parentStationId": null,
      "vehicleType": 3,
      "platformCode": null
    },
    {
      "stopId": "252",
      "name": "W 7th St @ C St",
      "municipality": "Boston",
      "latitude": 42.337229,
      "longitude": -71.055505,
      "parentStationId": null,
      "vehicleType": 3,
      "platformCode": null
    },
    {
      "stopId": "2026",
      "name": "Mt Auburn St @ Traill St",
      "municipality": "Cambridge",
      "latitude": 42.375072,
      "longitude": -71.136647,
      "parentStationId": null,
      "vehicleType": 3,
      "platformCode": null
    },
    {
      "stopId": "4925",
      "name": "Washington St @ Hingston St",
      "municipality": "Peabody",
      "latitude": 42.520137,
      "longitude": -70.938798,
      "parentStationId": null,
      "vehicleType": 3,
      "platformCode": null
    },
    {
      "stopId": "41187",
      "name": "Washington St @ Green St",
      "municipality": "Boston",
      "latitude": 42.309302,
      "longitude": -71.1048,
      "parentStationId": null,
      "vehicleType": 3,
      "platformCode": null
    },
    {
      "stopId": "6633",
      "name": "Wharf St opp Desmond Dr",
      "municipality": "Nahant",
      "latitude": 42.422754,
      "longitude": -70.91557,
      "parentStationId": null,
      "vehicleType": 3,
      "platformCode": null
    },